[
  {
    "keep": {
      "id": "e865f5ed-b383-46fd-8ae9-bbd30d9bef34",
      "name": "Holiday Club",
      "slug": "holiday-club-chicago",
      "address": "4000 N Sheridan Rd, Chicago, IL 60613, USA",
      "city": "Chicago",
      "state": null,
      "country": "USA",
      "postal_code": null,
      "latitude": 41.954588,
      "longitude": -87.654726,
      "geocoded_at": null,
      "created_at": "2025-11-29T02:40:51.775+00:00"
    },
    "delete": [
      {
        "id": "459f4a9e-04c5-4fbe-a1bf-23b18ae82c54",
        "name": "Holiday Club",
        "slug": "holiday-club-chicago-8",
        "address": "4000 N Sheridan Rd",
        "city": "Chicago",
        "state": "IL",
        "country": "USA",
        "postal_code": null,
        "latitude": 41.9546961,
        "longitude": -87.6547608,
        "geocoded_at": null,
        "created_at": "2025-12-03T02:20:11.55321+00:00"
      },
      {
        "id": "6dcd66df-c058-4e43-805b-3d0f4bb9af16",
        "name": "Holiday Club",
        "slug": "holiday-club-chicago-6",
        "address": "4000 N Sheridan Rd, Chicago, IL 60613, USA",
        "city": "Chicago",
        "state": null,
        "country": "USA",
        "postal_code": null,
        "latitude": 41.954588,
        "longitude": -87.654726,
        "geocoded_at": null,
        "created_at": "2025-12-01T21:00:51.139+00:00"
      },
      {
        "id": "fdbf2fec-41bb-4089-b79f-971af0f5cc75",
        "name": "Holiday Club",
        "slug": "holiday-club-chicago-5",
        "address": "4000 N Sheridan Rd, Chicago, IL 60613, USA",
        "city": "Chicago",
        "state": null,
        "country": "USA",
        "postal_code": null,
        "latitude": 41.954588,
        "longitude": -87.654726,
        "geocoded_at": null,
        "created_at": "2025-11-30T02:47:50.873+00:00"
      },
      {
        "id": "a810030d-dc72-44fb-b0cc-1be522781e68",
        "name": "Holiday Club",
        "slug": "holiday-club-chicago-7",
        "address": "Chicago",
        "city": "Chicago",
        "state": "Illinois",
        "country": "USA",
        "postal_code": null,
        "latitude": 41.88325,
        "longitude": -87.6323879,
        "geocoded_at": "2025-12-09T04:19:06.073+00:00",
        "created_at": "2025-12-02T22:01:03.777+00:00"
      },
      {
        "id": "5ef56161-d77c-43fb-9bcc-c11322de3a6e",
        "name": "Holiday Club",
        "slug": "holiday-club-chicago-3",
        "address": "",
        "city": "Chicago",
        "state": null,
        "country": "USA",
        "postal_code": null,
        "latitude": 41.954588,
        "longitude": -87.654726,
        "geocoded_at": "2025-12-09T04:17:41.175+00:00",
        "created_at": "2025-11-29T02:56:52.889+00:00"
      },
      {
        "id": "c073c10d-4086-40e6-9214-150f8662936a",
        "name": "Holiday Club",
        "slug": "holiday-club-chicago-2",
        "address": "",
        "city": "Chicago",
        "state": null,
        "country": "USA",
        "postal_code": null,
        "latitude": 41.954588,
        "longitude": -87.654726,
        "geocoded_at": "2025-12-09T04:17:02.571+00:00",
        "created_at": "2025-11-29T02:53:08.279+00:00"
      },
      {
        "id": "fd4846c3-2d40-4585-b49b-72f2b88b057d",
        "name": "Holiday Club",
        "slug": "holiday-club-chicago-1",
        "address": "",
        "city": "Chicago",
        "state": null,
        "country": "USA",
        "postal_code": null,
        "latitude": 41.954588,
        "longitude": -87.654726,
        "geocoded_at": "2025-12-09T04:17:05.674+00:00",
        "created_at": "2025-11-29T02:50:28.705+00:00"
      },
      {
        "id": "d675e00b-c899-4325-a7c7-540846fb4ad2",
        "name": "Holiday Club",
        "slug": "holiday-club-chicago-4",
        "address": "",
        "city": "Chicago",
        "state": null,
        "country": "USA",
        "postal_code": null,
        "latitude": 41.954588,
        "longitude": -87.654726,
        "geocoded_at": "2025-12-09T04:17:53.439+00:00",
        "created_at": "2025-11-29T03:45:05.692+00:00"
      }
    ],
    "reason": "Most complete data (score: 59.2)"
  },
  {
    "keep": {
      "id": "fa1d06fc-6211-4c51-ac56-e71643a56299",
      "name": "ACUD",
      "slug": "acud-berlin",
      "address": "Veteranenstraße 21",
      "city": "Berlin",
      "state": null,
      "country": "Germany",
      "postal_code": null,
      "latitude": 52.5335802,
      "longitude": 13.4009513,
      "geocoded_at": null,
      "created_at": "2025-11-29T02:41:26.921+00:00"
    },
    "delete": [
      {
        "id": "dd3a11eb-c451-4237-a512-25e40825237e",
        "name": "ACUD",
        "slug": "acud-berlin-3",
        "address": "Veteranenstraße 21",
        "city": "Berlin",
        "state": null,
        "country": "Germany",
        "postal_code": null,
        "latitude": 52.5335802,
        "longitude": 13.4009513,
        "geocoded_at": null,
        "created_at": "2025-11-30T02:51:35.129+00:00"
      },
      {
        "id": "8f9ff609-6820-418c-a1df-cdf2fedbe021",
        "name": "ACUD",
        "slug": "acud-berlin-1",
        "address": "Veteranenstraße 21",
        "city": "Berlin",
        "state": null,
        "country": "Germany",
        "postal_code": null,
        "latitude": 52.5335802,
        "longitude": 13.4009513,
        "geocoded_at": null,
        "created_at": "2025-11-29T03:44:26.209+00:00"
      },
      {
        "id": "f42c062d-870b-4dbc-98e5-947c5731b597",
        "name": "ACUD",
        "slug": "acud-berlin-4",
        "address": "Veteranenstraße 21",
        "city": "Berlin",
        "state": null,
        "country": "Germany",
        "postal_code": null,
        "latitude": 52.5336588,
        "longitude": 13.4008151,
        "geocoded_at": null,
        "created_at": "2025-12-01T21:00:01.449+00:00"
      },
      {
        "id": "1f25e436-7ff9-432d-bd34-9842bb58e324",
        "name": "ACUD",
        "slug": "acud-berlin-2",
        "address": "Veteranenstraße 21",
        "city": "Berlin",
        "state": null,
        "country": "Germany",
        "postal_code": null,
        "latitude": 52.5336588,
        "longitude": 13.4008151,
        "geocoded_at": null,
        "created_at": "2025-11-30T02:45:55.447+00:00"
      },
      {
        "id": "e35c08b3-6454-4eca-a292-e2e7e08b5f85",
        "name": "ACUD",
        "slug": "acud-berlin-5",
        "address": "Berlin",
        "city": "Berlin",
        "state": "Berlin",
        "country": "Germany",
        "postal_code": null,
        "latitude": 52.5335212,
        "longitude": 13.4009005,
        "geocoded_at": "2025-12-09T04:19:52.676+00:00",
        "created_at": "2025-12-02T22:01:17.44+00:00"
      }
    ],
    "reason": "Most complete data (score: 56.8)"
  },
  {
    "keep": {
      "id": "3a44d079-31a7-4114-8305-7f01b47639e3",
      "name": "Bonton",
      "slug": "bonton-paris",
      "address": "5 Bd des Filles du Calvaire, 75003 Paris, France",
      "city": "Paris",
      "state": null,
      "country": "France",
      "postal_code": null,
      "latitude": 48.8615004,
      "longitude": 2.366817,
      "geocoded_at": null,
      "created_at": "2025-11-29T02:41:17.213+00:00"
    },
    "delete": [
      {
        "id": "d87a920f-a054-466e-a082-dc24ce4fef1f",
        "name": "Bonton",
        "slug": "bonton-paris-5",
        "address": "5 bld des Filles du Calvaire",
        "city": "Paris",
        "state": "Île-de-France",
        "country": "France",
        "postal_code": null,
        "latitude": 48.8611,
        "longitude": 2.3672,
        "geocoded_at": null,
        "created_at": "2025-12-03T03:05:11.40999+00:00"
      },
      {
        "id": "7f2e68ce-a6b0-4c71-8adf-2eb5d6e762dc",
        "name": "Bonton",
        "slug": "bonton-paris-4",
        "address": "5 bld des Filles du Calvaire",
        "city": "Paris",
        "state": "Île-de-France",
        "country": "France",
        "postal_code": null,
        "latitude": 48.8611,
        "longitude": 2.3672,
        "geocoded_at": null,
        "created_at": "2025-12-03T02:20:20.164215+00:00"
      },
      {
        "id": "24c8eb43-e572-43bd-af24-dde5416d3369",
        "name": "Bonton",
        "slug": "bonton-paris-1",
        "address": "5 Bd des Filles du Calvaire",
        "city": "Paris",
        "state": null,
        "country": "France",
        "postal_code": null,
        "latitude": 48.8575475,
        "longitude": 2.3513765,
        "geocoded_at": null,
        "created_at": "2025-11-29T02:41:47.378+00:00"
      },
      {
        "id": "75d763aa-0e61-483d-a71a-36a5ac35e3cc",
        "name": "Bonton",
        "slug": "bonton-paris-2",
        "address": "Le Marais",
        "city": "Paris",
        "state": null,
        "country": "France",
        "postal_code": null,
        "latitude": 48.8612327,
        "longitude": 2.3581892,
        "geocoded_at": null,
        "created_at": "2025-11-29T02:54:29.451+00:00"
      },
      {
        "id": "c3a04b74-5b16-485e-8a09-4fac3b60f4e2",
        "name": "Bonton",
        "slug": "bonton-paris-3",
        "address": "Paris",
        "city": "Paris",
        "state": null,
        "country": "France",
        "postal_code": null,
        "latitude": 48.8575475,
        "longitude": 2.3513765,
        "geocoded_at": null,
        "created_at": "2025-12-02T22:01:12.6+00:00"
      }
    ],
    "reason": "Most complete data (score: 59.8)"
  },
  {
    "keep": {
      "id": "6be11d04-0d96-44f3-aee8-ec56a5b8b27f",
      "name": "C/O Berlin",
      "slug": "c-o-berlin-berlin",
      "address": "Hardenbergstraße 22-24",
      "city": "Berlin",
      "state": null,
      "country": "Germany",
      "postal_code": null,
      "latitude": 52.5066797,
      "longitude": 13.3304754,
      "geocoded_at": null,
      "created_at": "2025-11-29T02:41:43.207+00:00"
    },
    "delete": [
      {
        "id": "bac8b339-bb02-440d-a077-7130135fb1d8",
        "name": "C/O Berlin",
        "slug": "c-o-berlin-berlin-4",
        "address": "Amerika Haus, Hardenbergstraße 22-24, 10623 Berlin, Germany",
        "city": "Berlin",
        "state": null,
        "country": "Germany",
        "postal_code": null,
        "latitude": 52.5066337,
        "longitude": 13.330547,
        "geocoded_at": null,
        "created_at": "2025-12-01T21:00:03.15+00:00"
      },
      {
        "id": "a37a2e87-b524-4eb7-ac93-c8005a035329",
        "name": "C/O Berlin",
        "slug": "c-o-berlin-berlin-5",
        "address": "Hardenbergstrasse 22",
        "city": "Berlin",
        "state": "Berlin",
        "country": "Germany",
        "postal_code": null,
        "latitude": 52.50663,
        "longitude": 13.33067,
        "geocoded_at": null,
        "created_at": "2025-12-02T22:01:17.842+00:00"
      },
      {
        "id": "1d028c65-f4cf-46d5-a2c8-0f8db0afd5be",
        "name": "C/O Berlin",
        "slug": "c-o-berlin-berlin-2",
        "address": "Hardenbergstraße 22-24",
        "city": "Berlin",
        "state": null,
        "country": "Germany",
        "postal_code": null,
        "latitude": 52.5066797,
        "longitude": 13.3304754,
        "geocoded_at": null,
        "created_at": "2025-11-30T02:45:57.214+00:00"
      },
      {
        "id": "f91d6603-f244-4686-bb56-ced1a2e06453",
        "name": "C/O Berlin",
        "slug": "c-o-berlin-berlin-1",
        "address": "Hardenbergstraße 22-24",
        "city": "Berlin",
        "state": null,
        "country": "Germany",
        "postal_code": null,
        "latitude": 52.5066797,
        "longitude": 13.3304754,
        "geocoded_at": null,
        "created_at": "2025-11-29T03:44:27.921+00:00"
      },
      {
        "id": "b072c1f4-9887-49d3-912b-6f07dff5dd99",
        "name": "C/O Berlin",
        "slug": "c-o-berlin-berlin-3",
        "address": "Hardenbergstraße 22-24",
        "city": "Berlin",
        "state": null,
        "country": "Germany",
        "postal_code": null,
        "latitude": 52.5066797,
        "longitude": 13.3304754,
        "geocoded_at": null,
        "created_at": "2025-11-30T02:51:36.771+00:00"
      }
    ],
    "reason": "Most complete data (score: 57.2)"
  },
  {
    "keep": {
      "id": "7b3dcfe6-a28f-412b-a2f8-96c852b1ad51",
      "name": "Kotti",
      "slug": "kotti-berlin",
      "address": "Skalitzerstraße 134",
      "city": "Berlin",
      "state": null,
      "country": "Germany",
      "postal_code": null,
      "latitude": 52.4993621,
      "longitude": 13.4193658,
      "geocoded_at": null,
      "created_at": "2025-11-29T02:41:16.593+00:00"
    },
    "delete": [
      {
        "id": "bddc4cb1-aef9-4cdc-9961-22dbade20237",
        "name": "Kotti",
        "slug": "kotti-berlin-5",
        "address": "Kottbusser Tor, 10999 Berlin, Germany",
        "city": "Berlin",
        "state": "Berlin",
        "country": "Germany",
        "postal_code": null,
        "latitude": 52.4990048,
        "longitude": 13.4183201,
        "geocoded_at": null,
        "created_at": "2025-12-02T22:01:18.454+00:00"
      },
      {
        "id": "f240650a-ff06-4e5c-b2ce-0b033c2024f0",
        "name": "Kotti",
        "slug": "kotti-berlin-1",
        "address": "Kottbusser Tor, 10999 Berlin, Germany",
        "city": "Berlin",
        "state": null,
        "country": "Germany",
        "postal_code": null,
        "latitude": 52.4990048,
        "longitude": 13.4183201,
        "geocoded_at": null,
        "created_at": "2025-11-29T03:44:27.582+00:00"
      },
      {
        "id": "a844a2ba-3a26-4803-9db1-a90551938298",
        "name": "Kotti",
        "slug": "kotti-berlin-4",
        "address": "Skalitzerstraße 134",
        "city": "Berlin",
        "state": null,
        "country": "Germany",
        "postal_code": null,
        "latitude": 52.4995313,
        "longitude": 13.4187188,
        "geocoded_at": null,
        "created_at": "2025-12-01T21:00:02.803+00:00"
      },
      {
        "id": "b6859780-bbe3-4dc2-bdc8-cf1c1c874ffc",
        "name": "Kotti",
        "slug": "kotti-berlin-3",
        "address": "Skalitzerstraße 134",
        "city": "Berlin",
        "state": null,
        "country": "Germany",
        "postal_code": null,
        "latitude": 52.4993621,
        "longitude": 13.4193658,
        "geocoded_at": null,
        "created_at": "2025-11-30T02:51:36.467+00:00"
      },
      {
        "id": "8d870f46-97db-4e1b-985b-9a8104b43e04",
        "name": "Kotti",
        "slug": "kotti-berlin-2",
        "address": "Skalitzerstraße 134",
        "city": "Berlin",
        "state": null,
        "country": "Germany",
        "postal_code": null,
        "latitude": 52.4993621,
        "longitude": 13.4193658,
        "geocoded_at": null,
        "created_at": "2025-11-30T02:45:56.906+00:00"
      }
    ],
    "reason": "Most complete data (score: 56.9)"
  },
  {
    "keep": {
      "id": "48975d55-cd2f-4b8a-babb-acad01b953bd",
      "name": "Kulturbrauerei",
      "slug": "kulturbrauerei-berlin",
      "address": "Schönhauser Allee 36",
      "city": "Berlin",
      "state": null,
      "country": "Germany",
      "postal_code": null,
      "latitude": 52.5383047,
      "longitude": 13.4127573,
      "geocoded_at": null,
      "created_at": "2025-11-29T02:41:31.944+00:00"
    },
    "delete": [
      {
        "id": "a1cc6733-c9b1-4e82-acef-98ff382a168b",
        "name": "Kulturbrauerei",
        "slug": "kulturbrauerei-berlin-4",
        "address": "Schönhauser Allee 36, 10435 Berlin, Germany",
        "city": "Berlin",
        "state": null,
        "country": "Germany",
        "postal_code": null,
        "latitude": 52.5382032,
        "longitude": 13.4127133,
        "geocoded_at": null,
        "created_at": "2025-12-01T21:00:01.548+00:00"
      },
      {
        "id": "92838435-5e87-4426-a14d-b9da125495ec",
        "name": "Kulturbrauerei",
        "slug": "kulturbrauerei-berlin-2",
        "address": "Schönhauser Allee 36",
        "city": "Berlin",
        "state": null,
        "country": "Germany",
        "postal_code": null,
        "latitude": 52.5394242,
        "longitude": 13.4136682,
        "geocoded_at": null,
        "created_at": "2025-11-30T02:45:55.571+00:00"
      },
      {
        "id": "b9a5a053-ebfe-4214-b635-6aa0613c3ad7",
        "name": "Kulturbrauerei",
        "slug": "kulturbrauerei-berlin-1",
        "address": "Schönhauser Allee 36",
        "city": "Berlin",
        "state": null,
        "country": "Germany",
        "postal_code": null,
        "latitude": 52.5383047,
        "longitude": 13.4127573,
        "geocoded_at": null,
        "created_at": "2025-11-29T03:44:26.308+00:00"
      },
      {
        "id": "cc869e44-0c61-4e3f-8c25-f55022c71e25",
        "name": "Kulturbrauerei",
        "slug": "kulturbrauerei-berlin-3",
        "address": "Schönhauser Allee 36",
        "city": "Berlin",
        "state": null,
        "country": "Germany",
        "postal_code": null,
        "latitude": 52.5383047,
        "longitude": 13.4127573,
        "geocoded_at": null,
        "created_at": "2025-11-30T02:51:35.231+00:00"
      },
      {
        "id": "903f4ced-bded-4dd5-8f95-a40d7f31bee7",
        "name": "Kulturbrauerei",
        "slug": "kulturbrauerei-berlin-5",
        "address": "Berlin",
        "city": "Berlin",
        "state": "Berlin",
        "country": "Germany",
        "postal_code": null,
        "latitude": 52.5382032,
        "longitude": 13.4127133,
        "geocoded_at": "2025-12-09T04:19:27.085+00:00",
        "created_at": "2025-12-02T22:01:18.646+00:00"
      }
    ],
    "reason": "Most complete data (score: 57)"
  },
  {
    "keep": {
      "id": "6a4ee0e9-266a-443f-9933-b03bd58ff2da",
      "name": "Markthalle Neun",
      "slug": "markthalle-neun-berlin",
      "address": "Eisenbahnstraße 42",
      "city": "Berlin",
      "state": null,
      "country": "Germany",
      "postal_code": null,
      "latitude": 52.5021335,
      "longitude": 13.4316207,
      "geocoded_at": null,
      "created_at": "2025-11-29T02:41:32.043+00:00"
    },
    "delete": [
      {
        "id": "cac1a59e-dcc0-4c4c-b53b-c44894f7d9ff",
        "name": "Markthalle Neun",
        "slug": "markthalle-neun-berlin-4",
        "address": "Eisenbahnstraße 42/43, 10997 Berlin, Germany",
        "city": "Berlin",
        "state": null,
        "country": "Germany",
        "postal_code": null,
        "latitude": 52.502135,
        "longitude": 13.4315988,
        "geocoded_at": null,
        "created_at": "2025-12-01T21:00:02.7+00:00"
      },
      {
        "id": "b76ac57c-3a65-4e86-8cf4-32424dfd85d6",
        "name": "Markthalle Neun",
        "slug": "markthalle-neun-berlin-1",
        "address": "Eisenbahnstraße 42",
        "city": "Berlin",
        "state": null,
        "country": "Germany",
        "postal_code": null,
        "latitude": 52.5021335,
        "longitude": 13.4316207,
        "geocoded_at": null,
        "created_at": "2025-11-29T03:44:27.482+00:00"
      },
      {
        "id": "85e58c3b-605a-4e95-87ec-f4087efd9a40",
        "name": "Markthalle Neun",
        "slug": "markthalle-neun-berlin-3",
        "address": "Eisenbahnstraße 42",
        "city": "Berlin",
        "state": null,
        "country": "Germany",
        "postal_code": null,
        "latitude": 52.5021335,
        "longitude": 13.4316207,
        "geocoded_at": null,
        "created_at": "2025-11-30T02:51:36.343+00:00"
      },
      {
        "id": "2f4f4a11-f818-4188-92af-ae2a4fa024f4",
        "name": "Markthalle Neun",
        "slug": "markthalle-neun-berlin-2",
        "address": "Eisenbahnstraße 42",
        "city": "Berlin",
        "state": null,
        "country": "Germany",
        "postal_code": null,
        "latitude": 52.5021335,
        "longitude": 13.4316207,
        "geocoded_at": null,
        "created_at": "2025-11-30T02:45:56.803+00:00"
      },
      {
        "id": "025f32b4-e183-443d-a4d5-8ec730532285",
        "name": "Markthalle Neun",
        "slug": "markthalle-neun-berlin-5",
        "address": "Berlin",
        "city": "Berlin",
        "state": "Berlin",
        "country": "Germany",
        "postal_code": null,
        "latitude": 52.502135,
        "longitude": 13.4315988,
        "geocoded_at": "2025-12-09T04:19:09.719+00:00",
        "created_at": "2025-12-02T22:01:18.839+00:00"
      }
    ],
    "reason": "Most complete data (score: 56.8)"
  },
  {
    "keep": {
      "id": "38453218-d984-4db0-a49c-2de4929c4960",
      "name": "4100 Bar",
      "slug": "4100-bar-los-angeles",
      "address": "1087 Manzanita St",
      "city": "Los Angeles",
      "state": null,
      "country": "USA",
      "postal_code": null,
      "latitude": 34.0929711,
      "longitude": -118.2814424,
      "geocoded_at": null,
      "created_at": "2025-11-29T02:41:38.911+00:00"
    },
    "delete": [
      {
        "id": "99eb43a6-6f6b-4ec4-ae38-0fab5be65308",
        "name": "4100 Bar",
        "slug": "4100-bar-los-angeles-3",
        "address": "1087 Manzanita St",
        "city": "Los Angeles",
        "state": "CA",
        "country": "USA",
        "postal_code": null,
        "latitude": 34.0929,
        "longitude": -118.2839,
        "geocoded_at": null,
        "created_at": "2025-12-03T02:20:16.736142+00:00"
      },
      {
        "id": "f6494d97-b899-46c0-8653-0e481f8a6776",
        "name": "4100 Bar",
        "slug": "4100-bar-los-angeles-4",
        "address": "1087 Manzanita St",
        "city": "Los Angeles",
        "state": "CA",
        "country": "USA",
        "postal_code": null,
        "latitude": 34.0341,
        "longitude": -118.2465,
        "geocoded_at": null,
        "created_at": "2025-12-03T02:20:22.781173+00:00"
      },
      {
        "id": "e8967249-3fb8-443a-9a70-bf8b1af2ebce",
        "name": "4100 Bar",
        "slug": "4100-bar-los-angeles-1",
        "address": "1087 Manzanita St",
        "city": "Los Angeles",
        "state": null,
        "country": "USA",
        "postal_code": null,
        "latitude": 34.0929711,
        "longitude": -118.2814424,
        "geocoded_at": null,
        "created_at": "2025-11-29T03:42:41.023+00:00"
      },
      {
        "id": "57443fc5-0f27-479b-8c78-7d0fba757ee7",
        "name": "4100 Bar",
        "slug": "4100-bar-los-angeles-2",
        "address": "Los Angeles",
        "city": "Los Angeles",
        "state": "California",
        "country": "USA",
        "postal_code": null,
        "latitude": 34.0549076,
        "longitude": -118.242643,
        "geocoded_at": "2025-12-09T04:19:57.991+00:00",
        "created_at": "2025-12-02T22:01:29.524+00:00"
      }
    ],
    "reason": "Most complete data (score: 56.7)"
  },
  {
    "keep": {
      "id": "10ad8510-ec0c-409a-b386-28ead59820cc",
      "name": "AppleDoll Pop-Up",
      "slug": "appledoll-pop-up-venice",
      "address": "1212 Abbot Kinney Blvd, Venice, CA 90291, USA",
      "city": "Venice",
      "state": null,
      "country": "USA",
      "postal_code": null,
      "latitude": 33.9910807,
      "longitude": -118.4688547,
      "geocoded_at": null,
      "created_at": "2025-11-29T02:35:07.045+00:00"
    },
    "delete": [
      {
        "id": "059d38c4-b16c-4002-a1d4-72c9bddbdaa0",
        "name": "AppleDoll Pop-Up",
        "slug": "appledoll-pop-up-venice-2",
        "address": "1212 Abbot Kinney",
        "city": "Venice",
        "state": null,
        "country": "United States",
        "postal_code": null,
        "latitude": 33.9910807,
        "longitude": -118.4688547,
        "geocoded_at": null,
        "created_at": "2025-11-29T02:41:57.253+00:00"
      },
      {
        "id": "6129461b-c5ea-498b-852b-35acdcf736e4",
        "name": "AppleDoll Pop-Up",
        "slug": "appledoll-pop-up-venice-1",
        "address": "Abbot Kinney",
        "city": "Venice",
        "state": null,
        "country": "California, USA",
        "postal_code": null,
        "latitude": 33.98825,
        "longitude": -118.45323,
        "geocoded_at": "2025-12-09T04:18:02.267+00:00",
        "created_at": "2025-11-29T02:36:00.918+00:00"
      },
      {
        "id": "d4f47fd1-bc22-4692-86e1-91e1d14fe369",
        "name": "AppleDoll Pop-Up",
        "slug": "appledoll-pop-up-venice-3",
        "address": "Abbot Kinney",
        "city": "Venice",
        "state": null,
        "country": "USA",
        "postal_code": null,
        "latitude": 33.9890399,
        "longitude": -118.462447,
        "geocoded_at": "2025-12-09T04:19:50.006+00:00",
        "created_at": "2025-11-30T02:46:25.777+00:00"
      },
      {
        "id": "8fe389e7-94e2-4a5e-8768-5dba755f5684",
        "name": "AppleDoll Pop-Up",
        "slug": "appledoll-pop-up-venice-4",
        "address": "AppleDoll Pop-Up",
        "city": "Venice",
        "state": "California",
        "country": "USA",
        "postal_code": null,
        "latitude": 33.9910807,
        "longitude": -118.4688547,
        "geocoded_at": null,
        "created_at": "2025-12-02T22:01:36.396+00:00"
      }
    ],
    "reason": "Most complete data (score: 59.5)"
  },
  {
    "keep": {
      "id": "54fb4f03-2f4f-4064-aba3-c00838cfff87",
      "name": "Backstage",
      "slug": "backstage-culver-city",
      "address": "10400 Culver Blvd",
      "city": "Culver City",
      "state": null,
      "country": "USA",
      "postal_code": null,
      "latitude": 34.016274,
      "longitude": -118.400143,
      "geocoded_at": null,
      "created_at": "2025-11-29T02:41:01.739+00:00"
    },
    "delete": [
      {
        "id": "afd90e1f-6acc-4328-8548-34eb1537e2c3",
        "name": "Backstage",
        "slug": "backstage-culver-city-4",
        "address": "10400 Culver Blvd",
        "city": "Culver City",
        "state": "CA",
        "country": "USA",
        "postal_code": null,
        "latitude": 34.0219,
        "longitude": -118.3965,
        "geocoded_at": null,
        "created_at": "2025-12-03T02:20:17.121875+00:00"
      },
      {
        "id": "83cd6870-09c5-47f1-8ac0-9115988dfc86",
        "name": "Backstage",
        "slug": "backstage-culver-city-3",
        "address": "Culver City",
        "city": "Culver City",
        "state": "California",
        "country": "USA",
        "postal_code": null,
        "latitude": 34.0162722,
        "longitude": -118.4001389,
        "geocoded_at": "2025-12-09T04:19:02.629+00:00",
        "created_at": "2025-12-02T22:00:59.111+00:00"
      },
      {
        "id": "828db2f0-50a7-4ff2-9104-5d5ddf5f5d7f",
        "name": "Backstage",
        "slug": "backstage-culver-city-2",
        "address": "",
        "city": "Culver City",
        "state": null,
        "country": "USA",
        "postal_code": null,
        "latitude": 34.0162722,
        "longitude": -118.4001389,
        "geocoded_at": "2025-12-09T04:17:57.924+00:00",
        "created_at": "2025-11-29T03:45:18.744+00:00"
      },
      {
        "id": "f134a64d-b18b-4f95-8cff-9608b9d5deaf",
        "name": "Backstage",
        "slug": "backstage-culver-city-1",
        "address": "",
        "city": "Culver City",
        "state": null,
        "country": "USA",
        "postal_code": null,
        "latitude": 34.0162722,
        "longitude": -118.4001389,
        "geocoded_at": null,
        "created_at": "2025-11-29T02:57:09.949+00:00"
      }
    ],
    "reason": "Most complete data (score: 56.7)"
  },
  {
    "keep": {
      "id": "0e7657b5-3c14-421b-80e2-166b23dca33c",
      "name": "Cha Cha Lounge",
      "slug": "cha-cha-lounge-los-angeles",
      "address": "2375 Glendale Blvd",
      "city": "Los Angeles",
      "state": null,
      "country": "USA",
      "postal_code": null,
      "latitude": 34.09936,
      "longitude": -118.2594479,
      "geocoded_at": null,
      "created_at": "2025-11-29T02:41:00.424+00:00"
    },
    "delete": [
      {
        "id": "884ee420-9072-4ae3-867a-1fe99452d44e",
        "name": "Cha Cha Lounge",
        "slug": "cha-cha-lounge-los-angeles-3",
        "address": "2375 Glendale Blvd, Los Angeles, CA 90039, USA",
        "city": "Los Angeles",
        "state": "CA",
        "country": "USA",
        "postal_code": null,
        "latitude": 34.0993602,
        "longitude": -118.2595171,
        "geocoded_at": null,
        "created_at": "2025-12-03T02:20:17.527006+00:00"
      },
      {
        "id": "d7f8042d-f230-4b68-9a78-448da7c49e99",
        "name": "Cha Cha Lounge",
        "slug": "cha-cha-lounge-los-angeles-4",
        "address": "2375 Glendale Blvd",
        "city": "Los Angeles",
        "state": "CA",
        "country": "USA",
        "postal_code": null,
        "latitude": 34.0341,
        "longitude": -118.2465,
        "geocoded_at": null,
        "created_at": "2025-12-03T02:20:22.562759+00:00"
      },
      {
        "id": "6847f7ab-bbe3-446b-8ed4-a2d837b6e989",
        "name": "Cha Cha Lounge",
        "slug": "cha-cha-lounge-los-angeles-1",
        "address": "2375 Glendale Blvd",
        "city": "Los Angeles",
        "state": null,
        "country": "USA",
        "postal_code": null,
        "latitude": 34.0993554,
        "longitude": -118.2594917,
        "geocoded_at": null,
        "created_at": "2025-11-29T03:42:40.917+00:00"
      },
      {
        "id": "f253236d-b3ee-415e-8655-efc6ff2599f6",
        "name": "Cha Cha Lounge",
        "slug": "cha-cha-lounge-los-angeles-2",
        "address": "Los Angeles",
        "city": "Los Angeles",
        "state": "California",
        "country": "USA",
        "postal_code": null,
        "latitude": 34.0993602,
        "longitude": -118.2595171,
        "geocoded_at": "2025-12-09T04:19:59.356+00:00",
        "created_at": "2025-12-02T22:01:29.723+00:00"
      }
    ],
    "reason": "Most complete data (score: 56.8)"
  },
  {
    "keep": {
      "id": "cf66f3c4-5882-46ff-b2d2-a5a4dff1c607",
      "name": "Palais de Tokyo",
      "slug": "palais-de-tokyo-paris",
      "address": "13 Av. du Président Wilson, 75116 Paris, France",
      "city": "Paris",
      "state": null,
      "country": "France",
      "postal_code": null,
      "latitude": 48.8645866,
      "longitude": 2.2966748,
      "geocoded_at": null,
      "created_at": "2025-11-29T02:41:10.304+00:00"
    },
    "delete": [
      {
        "id": "38a5dbad-37c4-4ffb-84e5-b9306d55432b",
        "name": "Palais de Tokyo",
        "slug": "palais-de-tokyo-paris-1",
        "address": "13 Av. du Président Wilson, 75116 Paris, France",
        "city": "Paris",
        "state": null,
        "country": "France",
        "postal_code": null,
        "latitude": 48.8645866,
        "longitude": 2.2966748,
        "geocoded_at": null,
        "created_at": "2025-11-29T02:41:37.979+00:00"
      },
      {
        "id": "6d415f72-c0a5-4b1c-aaaf-f374eeed0fe5",
        "name": "Palais de Tokyo",
        "slug": "palais-de-tokyo-paris-4",
        "address": "Paris",
        "city": "Paris",
        "state": null,
        "country": "France",
        "postal_code": null,
        "latitude": 48.8645866,
        "longitude": 2.2966748,
        "geocoded_at": "2025-12-09T04:19:39.224+00:00",
        "created_at": "2025-12-02T22:01:12.803+00:00"
      },
      {
        "id": "bfa54bd9-c8a3-4554-9836-c00234c7570a",
        "name": "Palais de Tokyo",
        "slug": "palais-de-tokyo-paris-3",
        "address": "",
        "city": "Paris",
        "state": null,
        "country": "France",
        "postal_code": null,
        "latitude": 48.8645866,
        "longitude": 2.2966748,
        "geocoded_at": "2025-12-09T04:17:26.255+00:00",
        "created_at": "2025-11-29T02:54:29.319+00:00"
      },
      {
        "id": "d44d767c-4f17-4868-9371-66addea00e23",
        "name": "Palais de Tokyo",
        "slug": "palais-de-tokyo-paris-2",
        "address": "Palais de Tokyo",
        "city": "Paris",
        "state": null,
        "country": "France",
        "postal_code": null,
        "latitude": 33.6486834,
        "longitude": -95.5189584,
        "geocoded_at": null,
        "created_at": "2025-11-29T02:41:42.896+00:00"
      }
    ],
    "reason": "Most complete data (score: 59.7)"
  },
  {
    "keep": {
      "id": "99a3b4a7-c29e-424a-842c-da51b5193ec0",
      "name": "Alex's Bar",
      "slug": "alex-s-bar-long-beach-2",
      "address": "2913 E Anaheim St",
      "city": "Long Beach",
      "state": null,
      "country": "USA",
      "postal_code": null,
      "latitude": 33.7828185,
      "longitude": -118.1573911,
      "geocoded_at": null,
      "created_at": "2025-11-29T03:42:42.46+00:00"
    },
    "delete": [
      {
        "id": "8446673f-2483-4264-8a7e-00848333a6ee",
        "name": "Alex's Bar",
        "slug": "alex-s-bar-long-beach-4",
        "address": "Long Beach",
        "city": "Long Beach",
        "state": "California",
        "country": "USA",
        "postal_code": null,
        "latitude": 33.7827792,
        "longitude": -118.1573886,
        "geocoded_at": "2025-12-09T04:19:42.945+00:00",
        "created_at": "2025-12-02T22:01:06.566+00:00"
      },
      {
        "id": "27b109f3-262b-4dd2-9d2c-1876dc932cfd",
        "name": "Alex's Bar",
        "slug": "alex-s-bar-long-beach-1",
        "address": "",
        "city": "Long Beach",
        "state": null,
        "country": "USA",
        "postal_code": null,
        "latitude": 33.7827792,
        "longitude": -118.1573886,
        "geocoded_at": "2025-12-09T04:17:43.494+00:00",
        "created_at": "2025-11-29T02:57:09.606+00:00"
      },
      {
        "id": "8821bd20-c1e2-4730-b922-a616fcac2df9",
        "name": "Alex's Bar",
        "slug": "alex-s-bar-long-beach-3",
        "address": "",
        "city": "Long Beach",
        "state": null,
        "country": "USA",
        "postal_code": null,
        "latitude": 33.7827792,
        "longitude": -118.1573886,
        "geocoded_at": "2025-12-09T04:17:55.481+00:00",
        "created_at": "2025-11-29T03:45:18.213+00:00"
      }
    ],
    "reason": "Most complete data (score: 46.7)"
  },
  {
    "keep": {
      "id": "aebdff76-7fda-4c41-b6da-cb626416338c",
      "name": "Bar Deville",
      "slug": "bar-deville-chicago",
      "address": "701 N. Damen Ave.",
      "city": "Chicago",
      "state": null,
      "country": "United States",
      "postal_code": null,
      "latitude": 41.8942344,
      "longitude": -87.676849,
      "geocoded_at": null,
      "created_at": "2025-11-29T02:41:12.336+00:00"
    },
    "delete": [
      {
        "id": "49316f2a-26e9-4d5b-b4cc-15db915c8ed1",
        "name": "Bar DeVille",
        "slug": "bar-deville-chicago-2",
        "address": "701 N Damen Ave, Chicago, IL 60622, USA",
        "city": "Chicago",
        "state": null,
        "country": "USA",
        "postal_code": null,
        "latitude": 41.8943564,
        "longitude": -87.6768442,
        "geocoded_at": null,
        "created_at": "2025-11-29T03:45:04.855+00:00"
      },
      {
        "id": "8bdcb12f-7d00-4626-93d4-e3bedee09fe1",
        "name": "Bar DeVille",
        "slug": "bar-deville-chicago-1",
        "address": "",
        "city": "Chicago",
        "state": null,
        "country": "USA",
        "postal_code": null,
        "latitude": 41.88325,
        "longitude": -87.6323879,
        "geocoded_at": "2025-12-09T04:17:35.932+00:00",
        "created_at": "2025-11-29T02:56:52.115+00:00"
      },
      {
        "id": "2b888d3c-5b8a-453b-8db1-7b01de7a0714",
        "name": "Bar DeVille",
        "slug": "bar-deville-chicago-3",
        "address": "",
        "city": "Chicago",
        "state": null,
        "country": "USA",
        "postal_code": null,
        "latitude": 42.381094,
        "longitude": -83.098354,
        "geocoded_at": "2025-12-09T04:18:20.844+00:00",
        "created_at": "2025-11-30T02:47:49.971+00:00"
      }
    ],
    "reason": "Most complete data (score: 56.7)"
  },
  {
    "keep": {
      "id": "f45fdd8b-7fd8-4039-90bd-dccbb32f8bc9",
      "name": "Beer Barn",
      "slug": "beer-barn-gilbert-1",
      "address": "3150 E. Ray Rd. Suite 150",
      "city": "Gilbert",
      "state": null,
      "country": "United States",
      "postal_code": null,
      "latitude": 33.3220267,
      "longitude": -111.7234808,
      "geocoded_at": null,
      "created_at": "2025-11-29T02:41:57.468+00:00"
    },
    "delete": [
      {
        "id": "741570ad-5327-4580-b61f-e558f0f138ba",
        "name": "Beer Barn",
        "slug": "beer-barn-gilbert",
        "address": "",
        "city": "Gilbert",
        "state": null,
        "country": "Arizona, USA",
        "postal_code": null,
        "latitude": 33.3220098,
        "longitude": -111.7231451,
        "geocoded_at": null,
        "created_at": "2025-11-29T02:36:00.358+00:00"
      },
      {
        "id": "6ec59b89-562d-4000-bdf1-f785915029c5",
        "name": "Beer Barn",
        "slug": "beer-barn-gilbert-3",
        "address": "Gilbert",
        "city": "Gilbert",
        "state": "Arizona",
        "country": "USA",
        "postal_code": null,
        "latitude": 33.3220098,
        "longitude": -111.7231451,
        "geocoded_at": "2025-12-09T04:20:10.114+00:00",
        "created_at": "2025-12-02T22:01:45.676+00:00"
      },
      {
        "id": "987f188c-4b11-4a13-87ba-3357a0faefd1",
        "name": "Beer Barn",
        "slug": "beer-barn-gilbert-2",
        "address": "",
        "city": "Gilbert",
        "state": null,
        "country": "USA",
        "postal_code": null,
        "latitude": 33.3220098,
        "longitude": -111.7231451,
        "geocoded_at": null,
        "created_at": "2025-11-30T02:46:25.322+00:00"
      }
    ],
    "reason": "Most complete data (score: 47.5)"
  },
  {
    "keep": {
      "id": "1d424617-1c07-43a1-a562-11b34c9bc7d2",
      "name": "Bersarin Platz",
      "slug": "bersarin-platz-berlin",
      "address": "Petersburger Straße 81",
      "city": "Berlin",
      "state": null,
      "country": "Germany",
      "postal_code": null,
      "latitude": 52.518175,
      "longitude": 13.4537185,
      "geocoded_at": null,
      "created_at": "2025-11-29T03:44:26.521+00:00"
    },
    "delete": [
      {
        "id": "32696962-928f-40c4-951c-2e06e7d98164",
        "name": "Bersarin Platz",
        "slug": "bersarin-platz-berlin-3",
        "address": "Bersarinpl., 10 Berlin-Bezirk Friedrichshain-Kreuzberg, Germany",
        "city": "Berlin",
        "state": null,
        "country": "Germany",
        "postal_code": null,
        "latitude": 52.5192527,
        "longitude": 13.4534151,
        "geocoded_at": null,
        "created_at": "2025-12-01T21:00:01.761+00:00"
      },
      {
        "id": "8a17421e-40fe-41ce-8d58-662f44f5c299",
        "name": "Bersarin Platz",
        "slug": "bersarin-platz-berlin-2",
        "address": "Bersarinpl., 10 Berlin-Bezirk Friedrichshain-Kreuzberg, Germany",
        "city": "Berlin",
        "state": null,
        "country": "Germany",
        "postal_code": null,
        "latitude": 52.5192527,
        "longitude": 13.4534151,
        "geocoded_at": null,
        "created_at": "2025-11-30T02:51:35.432+00:00"
      },
      {
        "id": "b7bcb768-9bbc-4e2f-b78b-10bf5948911a",
        "name": "Bersarin Platz",
        "slug": "bersarin-platz-berlin-1",
        "address": "Petersburger Straße 81",
        "city": "Berlin",
        "state": null,
        "country": "Germany",
        "postal_code": null,
        "latitude": 52.518175,
        "longitude": 13.4537185,
        "geocoded_at": null,
        "created_at": "2025-11-30T02:45:55.821+00:00"
      }
    ],
    "reason": "Most complete data (score: 57.2)"
  },
  {
    "keep": {
      "id": "7552e2bf-8673-4d14-b579-25c29d375e6c",
      "name": "Birgit und Bier Biergarten & Club",
      "slug": "birgit-und-bier-biergarten-club-berlin",
      "address": "Schleusenufer 3",
      "city": "Berlin",
      "state": null,
      "country": "Germany",
      "postal_code": null,
      "latitude": 52.4976406,
      "longitude": 13.4497467,
      "geocoded_at": null,
      "created_at": "2025-11-29T03:44:29.021+00:00"
    },
    "delete": [
      {
        "id": "d1d8eff6-f501-411d-a7bf-f58f0852dad7",
        "name": "Birgit und Bier Biergarten & Club",
        "slug": "birgit-und-bier-biergarten-club-berlin-3",
        "address": "Schleusenufer 3, 10997 Berlin, Germany",
        "city": "Berlin",
        "state": null,
        "country": "Germany",
        "postal_code": null,
        "latitude": 52.4978052,
        "longitude": 13.4499834,
        "geocoded_at": null,
        "created_at": "2025-12-01T21:00:04.22+00:00"
      },
      {
        "id": "ed256e42-327a-42fb-9582-78005a823136",
        "name": "Birgit und Bier Biergarten & Club",
        "slug": "birgit-und-bier-biergarten-club-berlin-1",
        "address": "Schleusenufer 3",
        "city": "Berlin",
        "state": null,
        "country": "Germany",
        "postal_code": null,
        "latitude": 52.4975973,
        "longitude": 13.45011,
        "geocoded_at": null,
        "created_at": "2025-11-30T02:45:58.135+00:00"
      },
      {
        "id": "ffc7039a-16f5-4b75-80b2-d868c075ed76",
        "name": "Birgit und Bier Biergarten & Club",
        "slug": "birgit-und-bier-biergarten-club-berlin-2",
        "address": "Schleusenufer 3",
        "city": "Berlin",
        "state": null,
        "country": "Germany",
        "postal_code": null,
        "latitude": 52.4975973,
        "longitude": 13.45011,
        "geocoded_at": null,
        "created_at": "2025-11-30T02:51:37.675+00:00"
      }
    ],
    "reason": "Most complete data (score: 56.5)"
  },
  {
    "keep": {
      "id": "c638c173-c301-48af-a676-c0f2708a95dc",
      "name": "Classic Photo Booth",
      "slug": "classic-photo-booth-chicago",
      "address": "325 West Ohio Street",
      "city": "Chicago",
      "state": null,
      "country": "USA",
      "postal_code": null,
      "latitude": 41.892232,
      "longitude": -87.636662,
      "geocoded_at": null,
      "created_at": "2025-11-29T03:41:45.756+00:00"
    },
    "delete": [
      {
        "id": "76b33c32-cb29-456d-adcd-b32c56f62b2c",
        "name": "Classic Photo Booth",
        "slug": "classic-photo-booth-chicago-3",
        "address": "2645 North Kedzie Blvd",
        "city": "Chicago",
        "state": null,
        "country": "USA",
        "postal_code": null,
        "latitude": 41.9278394,
        "longitude": -87.7069443,
        "geocoded_at": null,
        "created_at": "2025-11-29T03:41:46.325+00:00"
      },
      {
        "id": "1dae46f3-67f7-4565-a5ef-c38560e38119",
        "name": "Classic Photo Booth",
        "slug": "classic-photo-booth-chicago-1",
        "address": "2030 West North Avenue",
        "city": "Chicago",
        "state": null,
        "country": "USA",
        "postal_code": null,
        "latitude": 41.9104708,
        "longitude": -87.6787102,
        "geocoded_at": null,
        "created_at": "2025-11-29T03:41:45.966+00:00"
      },
      {
        "id": "f77bdef0-1882-4837-9038-caab93e9650e",
        "name": "Classic Photo Booth",
        "slug": "classic-photo-booth-chicago-2",
        "address": "6341 North Broadway",
        "city": "Chicago",
        "state": null,
        "country": "USA",
        "postal_code": null,
        "latitude": 41.9976264,
        "longitude": -87.6600834,
        "geocoded_at": null,
        "created_at": "2025-11-29T03:41:46.22+00:00"
      }
    ],
    "reason": "Most complete data (score: 57)"
  },
  {
    "keep": {
      "id": "9104f3c4-0490-4200-82c9-2e509c9512ad",
      "name": "Club Photomatica",
      "slug": "club-photomatica-san-francisco",
      "address": "1644 Haight Street",
      "city": "San Francisco",
      "state": null,
      "country": "United States",
      "postal_code": null,
      "latitude": 37.7699204,
      "longitude": -122.4494355,
      "geocoded_at": null,
      "created_at": "2025-11-29T02:41:52.252+00:00"
    },
    "delete": [
      {
        "id": "969cfed3-30d4-49d2-a0d5-be817fd2c783",
        "name": "Club Photomatica",
        "slug": "club-photomatica-san-francisco-2",
        "address": "1644 Haight St",
        "city": "San Francisco",
        "state": "CA",
        "country": "USA",
        "postal_code": null,
        "latitude": 37.7699204,
        "longitude": -122.4494355,
        "geocoded_at": null,
        "created_at": "2025-12-03T03:21:49.162989+00:00"
      },
      {
        "id": "fed63a1b-5aa4-40dd-b5e2-4a9936a4fa94",
        "name": "Club Photomatica",
        "slug": "club-photomatica-san-francisco-3",
        "address": "1644 Haight St",
        "city": "San Francisco",
        "state": "CA",
        "country": "USA",
        "postal_code": null,
        "latitude": 37.7699204,
        "longitude": -122.4494355,
        "geocoded_at": null,
        "created_at": "2025-12-03T03:36:19.779022+00:00"
      },
      {
        "id": "c00ff1b8-de55-4dcf-b565-485efa2c4187",
        "name": "Club Photomatica",
        "slug": "club-photomatica-san-francisco-1",
        "address": "Club Photomatica",
        "city": "San Francisco",
        "state": "California",
        "country": "USA",
        "postal_code": null,
        "latitude": 37.7699204,
        "longitude": -122.4494355,
        "geocoded_at": "2025-12-09T04:20:05.382+00:00",
        "created_at": "2025-12-02T22:01:34.372+00:00"
      }
    ],
    "reason": "Most complete data (score: 56.8)"
  },
  {
    "keep": {
      "id": "f9ea819b-0cb5-4194-8306-9b728d146861",
      "name": "Cole's Bar",
      "slug": "cole-s-bar-chicago",
      "address": "2338 N Milwaukee Ave",
      "city": "Chicago",
      "state": null,
      "country": "USA",
      "postal_code": null,
      "latitude": 41.9236672,
      "longitude": -87.6988073,
      "geocoded_at": null,
      "created_at": "2025-11-29T02:50:28.488+00:00"
    },
    "delete": [
      {
        "id": "2050b9f3-963c-4221-957a-7a7db46337ae",
        "name": "Cole's Bar",
        "slug": "cole-s-bar-chicago-3",
        "address": "2338 N Milwaukee Ave",
        "city": "Chicago",
        "state": "IL",
        "country": "USA",
        "postal_code": null,
        "latitude": 41.9236672,
        "longitude": -87.6988073,
        "geocoded_at": null,
        "created_at": "2025-12-03T02:20:11.032066+00:00"
      },
      {
        "id": "024596b3-7e99-4b7a-a72d-f5b4a4c110ef",
        "name": "Cole's Bar",
        "slug": "cole-s-bar-chicago-1",
        "address": "2338 N. Milwaukee Ave.",
        "city": "Chicago",
        "state": null,
        "country": "USA",
        "postal_code": null,
        "latitude": 41.9236672,
        "longitude": -87.6988073,
        "geocoded_at": null,
        "created_at": "2025-11-29T02:53:08.07+00:00"
      },
      {
        "id": "84771c7c-d4d1-4189-96ee-ca8d9c055bde",
        "name": "Cole's Bar",
        "slug": "cole-s-bar-chicago-2",
        "address": "2338 N Milwaukee Ave",
        "city": "Chicago",
        "state": null,
        "country": "USA",
        "postal_code": null,
        "latitude": 41.9236672,
        "longitude": -87.6988073,
        "geocoded_at": null,
        "created_at": "2025-12-01T21:00:50.966+00:00"
      }
    ],
    "reason": "Most complete data (score: 57)"
  },
  {
    "keep": {
      "id": "1da3b9f4-59ba-4309-94f7-08d590689a1b",
      "name": "Day to Day Collective",
      "slug": "day-to-day-collective-san-diego",
      "address": "2310 Kettner Blvd",
      "city": "San Diego",
      "state": null,
      "country": "United States",
      "postal_code": null,
      "latitude": 32.7281138,
      "longitude": -117.1717337,
      "geocoded_at": null,
      "created_at": "2025-11-29T02:41:59.234+00:00"
    },
    "delete": [
      {
        "id": "4cc440f8-90df-4fd3-a1e9-da80a9d9cc69",
        "name": "Day to Day Collective",
        "slug": "day-to-day-collective-san-diego-3",
        "address": "2310 Kettner Blvd",
        "city": "San Diego",
        "state": "California",
        "country": "USA",
        "postal_code": null,
        "latitude": 32.7262,
        "longitude": -117.1751,
        "geocoded_at": null,
        "created_at": "2025-12-03T03:05:16.67593+00:00"
      },
      {
        "id": "3788c731-8141-48ee-add7-f482fafef909",
        "name": "Day to Day Collective",
        "slug": "day-to-day-collective-san-diego-2",
        "address": "2310 Kettner Blvd",
        "city": "San Diego",
        "state": "California",
        "country": "USA",
        "postal_code": null,
        "latitude": 32.7281138,
        "longitude": -117.1717337,
        "geocoded_at": null,
        "created_at": "2025-12-03T02:20:19.578841+00:00"
      },
      {
        "id": "3aa1a121-f52f-4038-a86a-404372fe2803",
        "name": "Day to Day Collective",
        "slug": "day-to-day-collective-san-diego-1",
        "address": "Day to Day Collective",
        "city": "San Diego",
        "state": "California",
        "country": "USA",
        "postal_code": null,
        "latitude": 32.7281138,
        "longitude": -117.1717337,
        "geocoded_at": null,
        "created_at": "2025-12-02T22:01:33.982+00:00"
      }
    ],
    "reason": "Most complete data (score: 56.7)"
  },
  {
    "keep": {
      "id": "e824a936-5617-4717-bd99-51c86d829979",
      "name": "Empty Bottle",
      "slug": "empty-bottle-chicago",
      "address": "1035 N. Western Ave.",
      "city": "Chicago",
      "state": null,
      "country": "United States",
      "postal_code": null,
      "latitude": 41.9004807,
      "longitude": -87.6866529,
      "geocoded_at": null,
      "created_at": "2025-11-29T02:40:52.693+00:00"
    },
    "delete": [
      {
        "id": "bacacddc-2779-468f-92d7-2e5fd89db14c",
        "name": "Empty Bottle",
        "slug": "empty-bottle-chicago-1",
        "address": "",
        "city": "Chicago",
        "state": null,
        "country": "USA",
        "postal_code": null,
        "latitude": 41.9004139,
        "longitude": -87.6867377,
        "geocoded_at": "2025-12-09T04:17:39.119+00:00",
        "created_at": "2025-11-29T02:56:52.482+00:00"
      },
      {
        "id": "0a1e87fb-68fc-4e10-8715-8c74311274bb",
        "name": "Empty Bottle",
        "slug": "empty-bottle-chicago-2",
        "address": "",
        "city": "Chicago",
        "state": null,
        "country": "USA",
        "postal_code": null,
        "latitude": 41.9004139,
        "longitude": -87.6867377,
        "geocoded_at": "2025-12-09T04:18:12.012+00:00",
        "created_at": "2025-11-29T03:45:05.307+00:00"
      },
      {
        "id": "bcd1dcb2-ddd2-4b6f-9946-dba957713d7f",
        "name": "Empty Bottle",
        "slug": "empty-bottle-chicago-3",
        "address": "",
        "city": "Chicago",
        "state": null,
        "country": "USA",
        "postal_code": null,
        "latitude": 41.9004139,
        "longitude": -87.6867377,
        "geocoded_at": null,
        "created_at": "2025-11-30T02:47:50.394+00:00"
      }
    ],
    "reason": "Most complete data (score: 57)"
  },
  {
    "keep": {
      "id": "8f19608d-3a7e-460b-8013-2eb67795fc35",
      "name": "Falkensteinstraße",
      "slug": "falkensteinstra-e-berlin",
      "address": "Schlesische Str. 41",
      "city": "Berlin",
      "state": null,
      "country": "Germany",
      "postal_code": null,
      "latitude": 52.500417,
      "longitude": 13.4437786,
      "geocoded_at": null,
      "created_at": "2025-11-29T03:44:27.277+00:00"
    },
    "delete": [
      {
        "id": "013ca22a-4a76-4b7d-b04d-bfe79e8272f3",
        "name": "Falkensteinstraße",
        "slug": "falkensteinstra-e-berlin-2",
        "address": "Falckensteinstraße, 10997 Berlin-Bezirk Friedrichshain-Kreuzberg, Germany",
        "city": "Berlin",
        "state": null,
        "country": "Germany",
        "postal_code": null,
        "latitude": 52.4987968,
        "longitude": 13.4425799,
        "geocoded_at": null,
        "created_at": "2025-11-30T02:51:36.147+00:00"
      },
      {
        "id": "c3e1944a-32d1-4f73-a55a-18c586742307",
        "name": "Falkensteinstraße",
        "slug": "falkensteinstra-e-berlin-1",
        "address": "Falckensteinstraße, 10997 Berlin-Bezirk Friedrichshain-Kreuzberg, Germany",
        "city": "Berlin",
        "state": null,
        "country": "Germany",
        "postal_code": null,
        "latitude": 52.4987968,
        "longitude": 13.4425799,
        "geocoded_at": null,
        "created_at": "2025-11-30T02:45:56.593+00:00"
      },
      {
        "id": "4425da5b-d142-4a4b-b850-7832f8cdd3a1",
        "name": "Falkensteinstraße",
        "slug": "falkensteinstra-e-berlin-3",
        "address": "Falckensteinstraße, 10997 Berlin-Bezirk Friedrichshain-Kreuzberg, Germany",
        "city": "Berlin",
        "state": null,
        "country": "Germany",
        "postal_code": null,
        "latitude": 52.4987968,
        "longitude": 13.4425799,
        "geocoded_at": null,
        "created_at": "2025-12-01T21:00:02.5+00:00"
      }
    ],
    "reason": "Most complete data (score: 56.9)"
  },
  {
    "keep": {
      "id": "37e7fffd-d734-4001-9a40-8218e9121b69",
      "name": "Forschungscampus Dahlem",
      "slug": "forschungscampus-dahlem-berlin",
      "address": "Lansstraße 8, 14195 Berlin, Germany",
      "city": "Berlin",
      "state": null,
      "country": "Germany",
      "postal_code": null,
      "latitude": 52.4567527,
      "longitude": 13.2920619,
      "geocoded_at": null,
      "created_at": "2025-11-29T03:44:29.237+00:00"
    },
    "delete": [
      {
        "id": "9d6e4a12-567f-44ec-bf96-dcac0fb9c462",
        "name": "Forschungscampus Dahlem",
        "slug": "forschungscampus-dahlem-berlin-1",
        "address": "Lansstraße 8, 14195 Berlin, Germany",
        "city": "Berlin",
        "state": null,
        "country": "Germany",
        "postal_code": null,
        "latitude": 52.4567527,
        "longitude": 13.2920619,
        "geocoded_at": null,
        "created_at": "2025-11-30T02:45:58.343+00:00"
      },
      {
        "id": "cc709310-5ce2-40f2-8cbf-a2361ab59323",
        "name": "Forschungscampus Dahlem",
        "slug": "forschungscampus-dahlem-berlin-3",
        "address": "Takustraße 39",
        "city": "Berlin",
        "state": null,
        "country": "Germany",
        "postal_code": null,
        "latitude": 52.4570661,
        "longitude": 13.2944942,
        "geocoded_at": null,
        "created_at": "2025-12-01T21:00:04.432+00:00"
      },
      {
        "id": "6285f6d9-5585-4f3c-b360-8781d972a9f9",
        "name": "Forschungscampus Dahlem",
        "slug": "forschungscampus-dahlem-berlin-2",
        "address": "Takustraße 39",
        "city": "Berlin",
        "state": null,
        "country": "Germany",
        "postal_code": null,
        "latitude": 52.4570661,
        "longitude": 13.2944942,
        "geocoded_at": null,
        "created_at": "2025-11-30T02:51:37.87+00:00"
      }
    ],
    "reason": "Most complete data (score: 58.5)"
  },
  {
    "keep": {
      "id": "395f4159-d59c-4852-8825-12cd944a442b",
      "name": "FOTOAUTOMATICA",
      "slug": "fotoautomatica-firenze",
      "address": "Via Pietro Francavilla n. 15",
      "city": "Firenze",
      "state": null,
      "country": "Italy",
      "postal_code": null,
      "latitude": 43.7732157,
      "longitude": 11.2241922,
      "geocoded_at": null,
      "created_at": "2025-11-29T02:54:38.885+00:00"
    },
    "delete": [
      {
        "id": "02014915-f92d-4360-9b13-e5792a7551fa",
        "name": "FOTOAUTOMATICA",
        "slug": "fotoautomatica-firenze-3",
        "address": "Via Pietro Francavilla n. 15",
        "city": "Firenze",
        "state": "Tuscany",
        "country": "Italy",
        "postal_code": null,
        "latitude": 43.7732157,
        "longitude": 11.2241922,
        "geocoded_at": null,
        "created_at": "2025-12-03T02:20:21.968158+00:00"
      },
      {
        "id": "62311418-5aa4-4b97-ac6e-e5ae43ac3d79",
        "name": "FOTOAUTOMATICA",
        "slug": "fotoautomatica-firenze-2",
        "address": "Via Pietro Francavilla n. 15",
        "city": "Firenze",
        "state": null,
        "country": "Italy",
        "postal_code": null,
        "latitude": 43.7732157,
        "longitude": 11.2241922,
        "geocoded_at": null,
        "created_at": "2025-11-30T02:46:04.164+00:00"
      },
      {
        "id": "10b4d906-7929-4ac8-a191-4d92e875a2bd",
        "name": "FOTOAUTOMATICA",
        "slug": "fotoautomatica-firenze-1",
        "address": "Via Pietro Francavilla n. 15",
        "city": "Firenze",
        "state": null,
        "country": "Italy",
        "postal_code": null,
        "latitude": 43.7732157,
        "longitude": 11.2241922,
        "geocoded_at": null,
        "created_at": "2025-11-29T03:42:59.232+00:00"
      }
    ],
    "reason": "Most complete data (score: 57.8)"
  },
  {
    "keep": {
      "id": "398a0457-7dea-47f7-9371-4b31a877f4dc",
      "name": "Hamburger Bahnhof – Nationalgalerie der Gegenwart",
      "slug": "hamburger-bahnhof-nationalgalerie-der-gegenwart-berlin",
      "address": "Invalidenstraße 50 - 51",
      "city": "Berlin",
      "state": null,
      "country": "Germany",
      "postal_code": null,
      "latitude": 52.5256721,
      "longitude": 13.3659247,
      "geocoded_at": null,
      "created_at": "2025-11-29T03:44:29.374+00:00"
    },
    "delete": [
      {
        "id": "ad261777-1713-4ac0-a115-d432bca9c3c3",
        "name": "Hamburger Bahnhof – Nationalgalerie der Gegenwart",
        "slug": "hamburger-bahnhof-nationalgalerie-der-gegenwart-berlin-1",
        "address": "Invalidenstraße 50, 10557 Berlin, Germany",
        "city": "Berlin",
        "state": null,
        "country": "Germany",
        "postal_code": null,
        "latitude": 52.5283411,
        "longitude": 13.372137,
        "geocoded_at": null,
        "created_at": "2025-11-30T02:45:58.445+00:00"
      },
      {
        "id": "5b480800-ab9b-4fd2-838a-441ba2e040b8",
        "name": "Hamburger Bahnhof – Nationalgalerie der Gegenwart",
        "slug": "hamburger-bahnhof-nationalgalerie-der-gegenwart-berlin-3",
        "address": "Invalidenstraße 50, 10557 Berlin, Germany",
        "city": "Berlin",
        "state": null,
        "country": "Germany",
        "postal_code": null,
        "latitude": 52.5283411,
        "longitude": 13.372137,
        "geocoded_at": null,
        "created_at": "2025-12-01T21:00:04.553+00:00"
      },
      {
        "id": "8bde1985-6f42-462d-ba6a-b63553e85c18",
        "name": "Hamburger Bahnhof – Nationalgalerie der Gegenwart",
        "slug": "hamburger-bahnhof-nationalgalerie-der-gegenwart-berlin-2",
        "address": "Invalidenstraße 50 - 51",
        "city": "Berlin",
        "state": null,
        "country": "Germany",
        "postal_code": null,
        "latitude": 52.52844,
        "longitude": 13.3720386,
        "geocoded_at": null,
        "created_at": "2025-11-30T02:51:37.967+00:00"
      }
    ],
    "reason": "Most complete data (score: 57.3)"
  },
  {
    "keep": {
      "id": "72d62100-4928-4781-a6d4-0545eec0aea4",
      "name": "Hobrecht",
      "slug": "hobrecht-berlin",
      "address": "Hobrecht Straße 57",
      "city": "Berlin",
      "state": null,
      "country": "Germany",
      "postal_code": null,
      "latitude": 52.491133,
      "longitude": 13.4259492,
      "geocoded_at": null,
      "created_at": "2025-11-29T03:44:28.131+00:00"
    },
    "delete": [
      {
        "id": "f37673e9-1004-42c9-b9c2-02a3fe019bdb",
        "name": "Hobrecht",
        "slug": "hobrecht-berlin-3",
        "address": "Hobrechtstraße 48, 12047 Berlin, Germany",
        "city": "Berlin",
        "state": null,
        "country": "Germany",
        "postal_code": null,
        "latitude": 52.493097,
        "longitude": 13.4252235,
        "geocoded_at": null,
        "created_at": "2025-12-01T21:00:03.367+00:00"
      },
      {
        "id": "cb992b34-32f6-49c7-a67d-1058880ca245",
        "name": "Hobrecht",
        "slug": "hobrecht-berlin-1",
        "address": "Hobrecht Straße 57",
        "city": "Berlin",
        "state": null,
        "country": "Germany",
        "postal_code": null,
        "latitude": 52.491133,
        "longitude": 13.4259492,
        "geocoded_at": null,
        "created_at": "2025-11-30T02:45:57.419+00:00"
      },
      {
        "id": "7e910094-3cea-466b-99c5-649d28ad2054",
        "name": "Hobrecht",
        "slug": "hobrecht-berlin-2",
        "address": "Hobrecht Straße 57",
        "city": "Berlin",
        "state": null,
        "country": "Germany",
        "postal_code": null,
        "latitude": 52.491133,
        "longitude": 13.4259492,
        "geocoded_at": null,
        "created_at": "2025-11-30T02:51:36.968+00:00"
      }
    ],
    "reason": "Most complete data (score: 56.8)"
  },
  {
    "keep": {
      "id": "f3f86e01-0f76-4996-a16c-e3e8ea7c0fe5",
      "name": "Holzmarkt Marktplatz",
      "slug": "holzmarkt-marktplatz-berlin",
      "address": "Holzmarktstraße 25",
      "city": "Berlin",
      "state": null,
      "country": "Germany",
      "postal_code": null,
      "latitude": 52.5115453,
      "longitude": 13.4265729,
      "geocoded_at": null,
      "created_at": "2025-11-29T03:44:28.447+00:00"
    },
    "delete": [
      {
        "id": "3ae035dc-f17b-475d-8839-d6c32db9194f",
        "name": "Holzmarkt Marktplatz",
        "slug": "holzmarkt-marktplatz-berlin-3",
        "address": "Holzmarktstraße 25, 10243 Berlin, Germany",
        "city": "Berlin",
        "state": null,
        "country": "Germany",
        "postal_code": null,
        "latitude": 52.5113137,
        "longitude": 13.4268387,
        "geocoded_at": null,
        "created_at": "2025-12-01T21:00:03.691+00:00"
      },
      {
        "id": "520953a8-8b57-47c0-b02c-a5fcf8b65c50",
        "name": "Holzmarkt Marktplatz",
        "slug": "holzmarkt-marktplatz-berlin-2",
        "address": "Holzmarktstraße 25",
        "city": "Berlin",
        "state": null,
        "country": "Germany",
        "postal_code": null,
        "latitude": 52.5115453,
        "longitude": 13.4265729,
        "geocoded_at": null,
        "created_at": "2025-11-30T02:51:37.277+00:00"
      },
      {
        "id": "28aeb128-3419-4b53-91f5-4ed1f0c5e05c",
        "name": "Holzmarkt Marktplatz",
        "slug": "holzmarkt-marktplatz-berlin-1",
        "address": "Holzmarktstraße 25",
        "city": "Berlin",
        "state": null,
        "country": "Germany",
        "postal_code": null,
        "latitude": 52.5115453,
        "longitude": 13.4265729,
        "geocoded_at": null,
        "created_at": "2025-11-30T02:45:57.73+00:00"
      }
    ],
    "reason": "Most complete data (score: 56.8)"
  },
  {
    "keep": {
      "id": "5910929c-7698-4a4d-8a4e-8cd101c0f136",
      "name": "Holzmarkt Straße",
      "slug": "holzmarkt-stra-e-berlin",
      "address": "Holzmarktstraße 25",
      "city": "Berlin",
      "state": null,
      "country": "Germany",
      "postal_code": null,
      "latitude": 52.5115453,
      "longitude": 13.4265729,
      "geocoded_at": null,
      "created_at": "2025-11-29T03:44:28.341+00:00"
    },
    "delete": [
      {
        "id": "42176f2d-415d-43ca-8b8c-077a10223b7f",
        "name": "Holzmarkt Straße",
        "slug": "holzmarkt-stra-e-berlin-2",
        "address": "Holzmarktstraße 25",
        "city": "Berlin",
        "state": null,
        "country": "Germany",
        "postal_code": null,
        "latitude": 52.5115453,
        "longitude": 13.4265729,
        "geocoded_at": null,
        "created_at": "2025-11-30T02:51:37.176+00:00"
      },
      {
        "id": "42163d2a-7d24-40d6-bd05-db0b8e355696",
        "name": "Holzmarkt Straße",
        "slug": "holzmarkt-stra-e-berlin-3",
        "address": "Holzmarktstraße 25",
        "city": "Berlin",
        "state": null,
        "country": "Germany",
        "postal_code": null,
        "latitude": 52.5119029,
        "longitude": 13.4253649,
        "geocoded_at": null,
        "created_at": "2025-12-01T21:00:03.582+00:00"
      },
      {
        "id": "dd9b3327-c745-4cce-9779-be7ba63c8ec9",
        "name": "Holzmarkt Straße",
        "slug": "holzmarkt-stra-e-berlin-1",
        "address": "Holzmarktstraße 25",
        "city": "Berlin",
        "state": null,
        "country": "Germany",
        "postal_code": null,
        "latitude": 52.5115453,
        "longitude": 13.4265729,
        "geocoded_at": null,
        "created_at": "2025-11-30T02:45:57.63+00:00"
      }
    ],
    "reason": "Most complete data (score: 56.8)"
  },
  {
    "keep": {
      "id": "3c584634-be6a-4f9e-8491-c87ac4f51950",
      "name": "Kater Blau Club",
      "slug": "kater-blau-club-berlin",
      "address": "Holzmarkt Straße 25",
      "city": "Berlin",
      "state": null,
      "country": "Germany",
      "postal_code": null,
      "latitude": 52.5115453,
      "longitude": 13.4265729,
      "geocoded_at": null,
      "created_at": "2025-11-29T03:44:28.561+00:00"
    },
    "delete": [
      {
        "id": "89d0ed99-9f8a-4da6-ab18-7183e5450cc1",
        "name": "Kater Blau Club",
        "slug": "kater-blau-club-berlin-3",
        "address": "Holzmarktstraße 25, 10243 Berlin, Germany",
        "city": "Berlin",
        "state": null,
        "country": "Germany",
        "postal_code": null,
        "latitude": 52.5119258,
        "longitude": 13.4253885,
        "geocoded_at": null,
        "created_at": "2025-12-01T21:00:03.794+00:00"
      },
      {
        "id": "71c7e275-67ff-48d0-bda2-6d7bcac9f36b",
        "name": "Kater Blau Club",
        "slug": "kater-blau-club-berlin-1",
        "address": "Holzmarkt Straße 25",
        "city": "Berlin",
        "state": null,
        "country": "Germany",
        "postal_code": null,
        "latitude": 52.5115453,
        "longitude": 13.4265729,
        "geocoded_at": null,
        "created_at": "2025-11-30T02:45:57.833+00:00"
      },
      {
        "id": "6f8c51e6-540b-49f6-9c72-91f83d4b6763",
        "name": "Kater Blau Club",
        "slug": "kater-blau-club-berlin-2",
        "address": "Holzmarkt Straße 25",
        "city": "Berlin",
        "state": null,
        "country": "Germany",
        "postal_code": null,
        "latitude": 52.5115453,
        "longitude": 13.4265729,
        "geocoded_at": null,
        "created_at": "2025-11-30T02:51:37.37+00:00"
      }
    ],
    "reason": "Most complete data (score: 56.9)"
  },
  {
    "keep": {
      "id": "1af22279-8f31-4d62-ad76-301e93f73e76",
      "name": "Kilowatt",
      "slug": "kilowatt-san-francisco",
      "address": "3160 16th St.94103",
      "city": "San Francisco",
      "state": null,
      "country": "United States",
      "postal_code": null,
      "latitude": 37.7650579,
      "longitude": -122.4232555,
      "geocoded_at": null,
      "created_at": "2025-11-29T02:41:54.821+00:00"
    },
    "delete": [
      {
        "id": "03b187f3-200b-4d42-af9f-60f6b39b5d0f",
        "name": "Kilowatt",
        "slug": "kilowatt-san-francisco-2",
        "address": "3160 16th St, San Francisco, CA 94103, USA",
        "city": "San Francisco",
        "state": "CA",
        "country": "USA",
        "postal_code": null,
        "latitude": 37.7650579,
        "longitude": -122.4232555,
        "geocoded_at": null,
        "created_at": "2025-12-03T03:21:50.05974+00:00"
      },
      {
        "id": "c0175819-76fa-49d7-a5c2-e94d59049746",
        "name": "Kilowatt",
        "slug": "kilowatt-san-francisco-3",
        "address": "3101 16th St",
        "city": "San Francisco",
        "state": "CA",
        "country": "USA",
        "postal_code": null,
        "latitude": 37.7649325,
        "longitude": -122.4219186,
        "geocoded_at": null,
        "created_at": "2025-12-03T03:36:20.73599+00:00"
      },
      {
        "id": "ba0eaf01-4777-48ec-8791-2fc7cb84bda9",
        "name": "Kilowatt",
        "slug": "kilowatt-san-francisco-1",
        "address": "Kilowatt",
        "city": "San Francisco",
        "state": "California",
        "country": "USA",
        "postal_code": null,
        "latitude": 37.7650579,
        "longitude": -122.4232555,
        "geocoded_at": "2025-12-09T04:20:07.581+00:00",
        "created_at": "2025-12-02T22:01:34.567+00:00"
      }
    ],
    "reason": "Most complete data (score: 56.8)"
  },
  {
    "keep": {
      "id": "f5889af0-a9e7-46ef-b1a4-6883b36d09e9",
      "name": "Kottbusser Damm",
      "slug": "kottbusser-damm-berlin",
      "address": "Kottbusser Damm 1",
      "city": "Berlin",
      "state": null,
      "country": "Germany",
      "postal_code": null,
      "latitude": 52.4953595,
      "longitude": 13.4200989,
      "geocoded_at": null,
      "created_at": "2025-11-29T03:44:29.473+00:00"
    },
    "delete": [
      {
        "id": "2c538f43-641b-418b-8590-7e06a810da79",
        "name": "Kottbusser Damm",
        "slug": "kottbusser-damm-berlin-1",
        "address": "Kottbusser Damm, 10967 Berlin, Germany",
        "city": "Berlin",
        "state": null,
        "country": "Germany",
        "postal_code": null,
        "latitude": 52.4915972,
        "longitude": 13.4228824,
        "geocoded_at": null,
        "created_at": "2025-11-30T02:45:58.549+00:00"
      },
      {
        "id": "04a33b49-dd66-4db0-b6cd-792b8cf9417d",
        "name": "Kottbusser Damm",
        "slug": "kottbusser-damm-berlin-3",
        "address": "Kottbusser Damm, 10967 Berlin, Germany",
        "city": "Berlin",
        "state": null,
        "country": "Germany",
        "postal_code": null,
        "latitude": 52.4915972,
        "longitude": 13.4228824,
        "geocoded_at": null,
        "created_at": "2025-12-01T21:00:04.646+00:00"
      },
      {
        "id": "22b8e67c-630a-4b2a-9462-cbd05d79fbcb",
        "name": "Kottbusser Damm",
        "slug": "kottbusser-damm-berlin-2",
        "address": "Kottbusser Damm 1",
        "city": "Berlin",
        "state": null,
        "country": "Germany",
        "postal_code": null,
        "latitude": 52.4953785,
        "longitude": 13.4202503,
        "geocoded_at": null,
        "created_at": "2025-11-30T02:51:38.072+00:00"
      }
    ],
    "reason": "Most complete data (score: 56.7)"
  },
  {
    "keep": {
      "id": "7470618f-8313-4915-b22a-f9d991bf163c",
      "name": "Le 104",
      "slug": "le-104-paris",
      "address": "104 rue d'Aubervilliers",
      "city": "Paris",
      "state": null,
      "country": "France",
      "postal_code": null,
      "latitude": 48.8575475,
      "longitude": 2.3513765,
      "geocoded_at": null,
      "created_at": "2025-11-29T02:41:11.312+00:00"
    },
    "delete": [
      {
        "id": "0da8102a-1bc1-41c7-be9b-e6055ce19666",
        "name": "Le 104",
        "slug": "le-104-paris-2",
        "address": "104 rue d'Aubervilliers",
        "city": "Paris",
        "state": null,
        "country": "France",
        "postal_code": null,
        "latitude": 48.8575475,
        "longitude": 2.3513765,
        "geocoded_at": null,
        "created_at": "2025-11-29T02:41:33.286+00:00"
      },
      {
        "id": "f3cee976-e62a-4e0b-ae27-2372a31cc44b",
        "name": "Le 104",
        "slug": "le-104-paris-1",
        "address": "104 rue d'Aubervilliers",
        "city": "Paris",
        "state": null,
        "country": "France",
        "postal_code": null,
        "latitude": 48.8575475,
        "longitude": 2.3513765,
        "geocoded_at": null,
        "created_at": "2025-11-29T02:41:22.183+00:00"
      },
      {
        "id": "d88aacc9-b8ae-4ec4-8b74-cb71eacbd472",
        "name": "Le 104",
        "slug": "le-104-paris-3",
        "address": "5, rue Curial",
        "city": "Paris",
        "state": null,
        "country": "France",
        "postal_code": null,
        "latitude": 48.8901712,
        "longitude": 2.3699548,
        "geocoded_at": null,
        "created_at": "2025-11-29T02:41:39.634+00:00"
      }
    ],
    "reason": "Most complete data (score: 57.3)"
  },
  {
    "keep": {
      "id": "ae0355a1-5be4-4e3c-a8d2-48870f5af744",
      "name": "Lincoln Tap Room",
      "slug": "lincoln-tap-room-chicago",
      "address": "3010 N. Lincoln Ave.",
      "city": "Chicago",
      "state": null,
      "country": "United States",
      "postal_code": null,
      "latitude": 41.9363406,
      "longitude": -87.6643657,
      "geocoded_at": null,
      "created_at": "2025-11-29T02:40:52.197+00:00"
    },
    "delete": [
      {
        "id": "959ad5d6-66eb-4707-9265-46c692306b18",
        "name": "Lincoln Tap Room",
        "slug": "lincoln-tap-room-chicago-2",
        "address": "",
        "city": "Chicago",
        "state": null,
        "country": "USA",
        "postal_code": null,
        "latitude": 41.9363965,
        "longitude": -87.664398,
        "geocoded_at": "2025-12-09T04:17:54.461+00:00",
        "created_at": "2025-11-29T03:45:05.892+00:00"
      },
      {
        "id": "6abc2a13-3ae5-4f59-9e9c-08beb5d90b1a",
        "name": "Lincoln Tap Room",
        "slug": "lincoln-tap-room-chicago-1",
        "address": "",
        "city": "Chicago",
        "state": null,
        "country": "USA",
        "postal_code": null,
        "latitude": 41.9363965,
        "longitude": -87.664398,
        "geocoded_at": "2025-12-09T04:17:42.565+00:00",
        "created_at": "2025-11-29T02:56:53.093+00:00"
      },
      {
        "id": "2809fd8c-9e06-43ca-90b5-1bd029de59f2",
        "name": "Lincoln Tap Room",
        "slug": "lincoln-tap-room-chicago-3",
        "address": "",
        "city": "Chicago",
        "state": null,
        "country": "USA",
        "postal_code": null,
        "latitude": 41.9363965,
        "longitude": -87.664398,
        "geocoded_at": null,
        "created_at": "2025-11-30T02:47:51.112+00:00"
      }
    ],
    "reason": "Most complete data (score: 57)"
  },
  {
    "keep": {
      "id": "5e6ca875-4bf1-4e51-b715-0ebbc7d25f47",
      "name": "Martas Gästehäuser",
      "slug": "martas-g-steh-user-berlin",
      "address": "Seydlitzstraße 20",
      "city": "Berlin",
      "state": null,
      "country": "Germany",
      "postal_code": null,
      "latitude": 52.5269518,
      "longitude": 13.362132,
      "geocoded_at": null,
      "created_at": "2025-11-29T03:44:29.138+00:00"
    },
    "delete": [
      {
        "id": "33d50b34-1e99-4f94-99c0-ea45f1c10dbf",
        "name": "Martas Gästehäuser",
        "slug": "martas-g-steh-user-berlin-2",
        "address": "Seydlitzstraße 20, 10557 Berlin, Germany",
        "city": "Berlin",
        "state": null,
        "country": "Germany",
        "postal_code": null,
        "latitude": 52.5269518,
        "longitude": 13.362132,
        "geocoded_at": null,
        "created_at": "2025-11-30T02:51:37.773+00:00"
      },
      {
        "id": "19684acd-4533-41ac-9b66-6f6149831130",
        "name": "Martas Gästehäuser",
        "slug": "martas-g-steh-user-berlin-3",
        "address": "Seydlitzstraße 20, 10557 Berlin, Germany",
        "city": "Berlin",
        "state": null,
        "country": "Germany",
        "postal_code": null,
        "latitude": 52.5269518,
        "longitude": 13.362132,
        "geocoded_at": null,
        "created_at": "2025-12-01T21:00:04.334+00:00"
      },
      {
        "id": "c515aa69-2959-44c3-991e-6b8a82d54ea6",
        "name": "Martas Gästehäuser",
        "slug": "martas-g-steh-user-berlin-1",
        "address": "Seydlitzstraße 20, 10557 Berlin, Germany",
        "city": "Berlin",
        "state": null,
        "country": "Germany",
        "postal_code": null,
        "latitude": 52.5269518,
        "longitude": 13.362132,
        "geocoded_at": null,
        "created_at": "2025-11-30T02:45:58.239+00:00"
      }
    ],
    "reason": "Most complete data (score: 56.7)"
  },
  {
    "keep": {
      "id": "4d6cc197-d08b-4665-86a0-e471cad27ef8",
      "name": "Mauerpark 1",
      "slug": "mauerpark-1-berlin",
      "address": "Eberswalder Str. 2",
      "city": "Berlin",
      "state": null,
      "country": "Germany",
      "postal_code": null,
      "latitude": 52.5406668,
      "longitude": 13.4055012,
      "geocoded_at": null,
      "created_at": "2025-11-29T03:44:25.763+00:00"
    },
    "delete": [
      {
        "id": "34b8afc3-8d4d-4762-b2f7-161056467e1c",
        "name": "Mauerpark 1",
        "slug": "mauerpark-1-berlin-2",
        "address": "Eberswalder Str. 2",
        "city": "Berlin",
        "state": null,
        "country": "Germany",
        "postal_code": null,
        "latitude": 52.5406668,
        "longitude": 13.4055012,
        "geocoded_at": null,
        "created_at": "2025-11-30T02:51:34.728+00:00"
      },
      {
        "id": "550b7ed8-be1b-4836-b36e-7a10e5174218",
        "name": "Mauerpark 1",
        "slug": "mauerpark-1-berlin-1",
        "address": "Eberswalder Str. 2",
        "city": "Berlin",
        "state": null,
        "country": "Germany",
        "postal_code": null,
        "latitude": 52.5406703,
        "longitude": 13.4055075,
        "geocoded_at": null,
        "created_at": "2025-11-30T02:45:55.016+00:00"
      },
      {
        "id": "701f23e3-5c91-49a2-8cb6-550b50585178",
        "name": "Mauerpark 1",
        "slug": "mauerpark-1-berlin-3",
        "address": "Eberswalder Str. 2",
        "city": "Berlin",
        "state": null,
        "country": "Germany",
        "postal_code": null,
        "latitude": 52.5406703,
        "longitude": 13.4055075,
        "geocoded_at": null,
        "created_at": "2025-12-01T21:00:01.005+00:00"
      }
    ],
    "reason": "Most complete data (score: 56.8)"
  },
  {
    "keep": {
      "id": "c421d85c-96bb-4578-ae43-4e3855609943",
      "name": "Mauerpark 2",
      "slug": "mauerpark-2-berlin",
      "address": "Eberswalder Str 2",
      "city": "Berlin",
      "state": null,
      "country": "Germany",
      "postal_code": null,
      "latitude": 52.5406668,
      "longitude": 13.4055012,
      "geocoded_at": null,
      "created_at": "2025-11-29T03:44:25.976+00:00"
    },
    "delete": [
      {
        "id": "abd901da-e72f-41db-9a0f-bd9aa1f7de98",
        "name": "Mauerpark 2",
        "slug": "mauerpark-2-berlin-3",
        "address": "Bernauer Str. 63, 13355 Berlin, Germany",
        "city": "Berlin",
        "state": null,
        "country": "Germany",
        "postal_code": null,
        "latitude": 52.5427179,
        "longitude": 13.402652,
        "geocoded_at": null,
        "created_at": "2025-12-01T21:00:01.207+00:00"
      },
      {
        "id": "048e472d-9e5e-42ef-a7f6-a0181c9e5547",
        "name": "Mauerpark 2",
        "slug": "mauerpark-2-berlin-1",
        "address": "Eberswalder Str 2",
        "city": "Berlin",
        "state": null,
        "country": "Germany",
        "postal_code": null,
        "latitude": 52.5406703,
        "longitude": 13.4055075,
        "geocoded_at": null,
        "created_at": "2025-11-30T02:45:55.172+00:00"
      },
      {
        "id": "c14775f2-362c-4b8d-9d66-7b39536b4ce6",
        "name": "Mauerpark 2",
        "slug": "mauerpark-2-berlin-2",
        "address": "Eberswalder Str 2",
        "city": "Berlin",
        "state": null,
        "country": "Germany",
        "postal_code": null,
        "latitude": 52.5406668,
        "longitude": 13.4055012,
        "geocoded_at": null,
        "created_at": "2025-11-30T02:51:34.892+00:00"
      }
    ],
    "reason": "Most complete data (score: 56.7)"
  },
  {
    "keep": {
      "id": "6e84a179-ddbb-4b70-a88f-315050486754",
      "name": "Mauerstreifen",
      "slug": "mauerstreifen-berlin",
      "address": "Bernauer Straße 47 A",
      "city": "Berlin",
      "state": null,
      "country": "Germany",
      "postal_code": null,
      "latitude": 52.5399027,
      "longitude": 13.4028794,
      "geocoded_at": null,
      "created_at": "2025-11-29T03:44:26.103+00:00"
    },
    "delete": [
      {
        "id": "56e1a4b2-9c91-4528-9e86-376e613b2d50",
        "name": "Mauerstreifen",
        "slug": "mauerstreifen-berlin-3",
        "address": "Bernauer Str. 111, 13355 Berlin, Germany",
        "city": "Berlin",
        "state": null,
        "country": "Germany",
        "postal_code": null,
        "latitude": 52.5350521,
        "longitude": 13.3901898,
        "geocoded_at": null,
        "created_at": "2025-12-01T21:00:01.336+00:00"
      },
      {
        "id": "89f390f4-d749-4856-8ce4-b5bbe8f76e12",
        "name": "Mauerstreifen",
        "slug": "mauerstreifen-berlin-1",
        "address": "Bernauer Straße 47 A",
        "city": "Berlin",
        "state": null,
        "country": "Germany",
        "postal_code": null,
        "latitude": 52.5399446,
        "longitude": 13.4027158,
        "geocoded_at": null,
        "created_at": "2025-11-30T02:45:55.313+00:00"
      },
      {
        "id": "ecdce470-a2f5-48c9-9dc5-192e3be7dff0",
        "name": "Mauerstreifen",
        "slug": "mauerstreifen-berlin-2",
        "address": "Bernauer Straße 47 A",
        "city": "Berlin",
        "state": null,
        "country": "Germany",
        "postal_code": null,
        "latitude": 52.5399027,
        "longitude": 13.4028794,
        "geocoded_at": null,
        "created_at": "2025-11-30T02:51:35.025+00:00"
      }
    ],
    "reason": "Most complete data (score: 57)"
  },
  {
    "keep": {
      "id": "d42ec3c0-3eb0-47ff-9e86-fb4e2fb59a79",
      "name": "Modulor Berlin",
      "slug": "modulor-berlin-berlin",
      "address": "Prinzenstraße 85",
      "city": "Berlin",
      "state": null,
      "country": "Germany",
      "postal_code": null,
      "latitude": 52.5034486,
      "longitude": 13.4102116,
      "geocoded_at": null,
      "created_at": "2025-11-29T03:44:27.69+00:00"
    },
    "delete": [
      {
        "id": "c5d7c56e-20ad-43f2-aaee-00991c886ba5",
        "name": "Modulor Berlin",
        "slug": "modulor-berlin-berlin-2",
        "address": "Prinzenstraße 85, 10969 Berlin, Germany",
        "city": "Berlin",
        "state": null,
        "country": "Germany",
        "postal_code": null,
        "latitude": 52.503382,
        "longitude": 13.41011,
        "geocoded_at": null,
        "created_at": "2025-11-30T02:51:36.564+00:00"
      },
      {
        "id": "6748cebc-7c5b-41e1-bef3-511fc0cb6170",
        "name": "Modulor Berlin",
        "slug": "modulor-berlin-berlin-1",
        "address": "Prinzenstraße 85, 10969 Berlin, Germany",
        "city": "Berlin",
        "state": null,
        "country": "Germany",
        "postal_code": null,
        "latitude": 52.503382,
        "longitude": 13.41011,
        "geocoded_at": null,
        "created_at": "2025-11-30T02:45:57.012+00:00"
      },
      {
        "id": "e7d8fd56-8c31-425d-a28e-6a6e553bd327",
        "name": "Modulor Berlin",
        "slug": "modulor-berlin-berlin-3",
        "address": "Prinzenstraße 85, 10969 Berlin, Germany",
        "city": "Berlin",
        "state": null,
        "country": "Germany",
        "postal_code": null,
        "latitude": 52.503382,
        "longitude": 13.41011,
        "geocoded_at": null,
        "created_at": "2025-12-01T21:00:02.909+00:00"
      }
    ],
    "reason": "Most complete data (score: 56.6)"
  },
  {
    "keep": {
      "id": "97134689-d856-4ee7-b686-4be561e03114",
      "name": "Mutiny Information Cafe",
      "slug": "mutiny-information-cafe-denver-3",
      "address": "2 S Broadway",
      "city": "Denver",
      "state": "CO",
      "country": "USA",
      "postal_code": null,
      "latitude": 39.716419,
      "longitude": -104.987144,
      "geocoded_at": null,
      "created_at": "2025-12-02T22:00:52.443+00:00"
    },
    "delete": [
      {
        "id": "fc36cb71-9e1b-4040-877d-5e26d15c7899",
        "name": "Mutiny Information Cafe",
        "slug": "mutiny-information-cafe-denver-1",
        "address": "3483 S Broadway, Englewood, CO 80113, USA",
        "city": "Denver",
        "state": null,
        "country": "United States",
        "postal_code": null,
        "latitude": 39.6534477,
        "longitude": -104.987856,
        "geocoded_at": null,
        "created_at": "2025-11-29T02:41:41.753+00:00"
      },
      {
        "id": "e5a5c21c-a027-4a0b-b453-29facb2971df",
        "name": "Mutiny Information Cafe",
        "slug": "mutiny-information-cafe-denver",
        "address": "",
        "city": "Denver",
        "state": null,
        "country": "USA",
        "postal_code": null,
        "latitude": 39.6534477,
        "longitude": -104.987856,
        "geocoded_at": "2025-12-09T04:17:07.03+00:00",
        "created_at": "2025-11-29T02:36:01.062+00:00"
      },
      {
        "id": "78819984-5a8d-45c5-ba3b-914381d4ca7b",
        "name": "Mutiny Information Cafe",
        "slug": "mutiny-information-cafe-denver-2",
        "address": "",
        "city": "Denver",
        "state": null,
        "country": "USA",
        "postal_code": null,
        "latitude": 39.6534477,
        "longitude": -104.987856,
        "geocoded_at": "2025-12-09T04:18:16.535+00:00",
        "created_at": "2025-11-30T02:46:25.885+00:00"
      }
    ],
    "reason": "Most complete data (score: 49.2)"
  },
  {
    "keep": {
      "id": "59c94903-e0d9-43cb-9350-2aa49e863f55",
      "name": "Netil House",
      "slug": "netil-house-london",
      "address": "1 Westgate St, London E8 3RL, UK",
      "city": "London",
      "state": null,
      "country": "UK",
      "postal_code": null,
      "latitude": 51.5376468,
      "longitude": -0.0577808,
      "geocoded_at": null,
      "created_at": "2025-11-29T02:36:00.507+00:00"
    },
    "delete": [
      {
        "id": "5cf813e6-9955-4242-8176-d6e53e99da59",
        "name": "Netil House",
        "slug": "netil-house-london-3",
        "address": "1 Westgate St, London E8 3RL, UK",
        "city": "London",
        "state": null,
        "country": "UK",
        "postal_code": null,
        "latitude": 51.5376468,
        "longitude": -0.0577808,
        "geocoded_at": null,
        "created_at": "2025-11-30T02:46:25.445+00:00"
      },
      {
        "id": "c60d291e-a2eb-4ddb-a2c7-290d83a518c2",
        "name": "Netil House",
        "slug": "netil-house-london-1",
        "address": "1-7 Westgate Street",
        "city": "London",
        "state": null,
        "country": "United Kingdom",
        "postal_code": null,
        "latitude": 51.5072178,
        "longitude": -0.1275862,
        "geocoded_at": null,
        "created_at": "2025-11-29T02:41:27.54+00:00"
      },
      {
        "id": "9276093b-80cf-48c2-a7cc-07e39fb340a4",
        "name": "Netil House",
        "slug": "netil-house-london-2",
        "address": "1 Westgate St.",
        "city": "London",
        "state": null,
        "country": "United Kingdom",
        "postal_code": null,
        "latitude": 51.5072178,
        "longitude": -0.1275862,
        "geocoded_at": null,
        "created_at": "2025-11-29T02:41:57.575+00:00"
      }
    ],
    "reason": "Most complete data (score: 58.2)"
  },
  {
    "keep": {
      "id": "ef5d0cf1-2182-49e9-95a0-13ae2e69253a",
      "name": "25hours Hotel Lobby",
      "slug": "25hours-hotel-lobby-vienna",
      "address": "25hours Hotel Lobby",
      "city": "Vienna",
      "state": null,
      "country": "Austria",
      "postal_code": null,
      "latitude": 48.2064947,
      "longitude": 16.3546991,
      "geocoded_at": "2025-12-09T04:20:01.312+00:00",
      "created_at": "2025-11-30T02:46:52.322+00:00"
    },
    "delete": [
      {
        "id": "58314d78-17e4-496a-ba73-84b2e35337ba",
        "name": "25hours Hotel Lobby",
        "slug": "25hours-hotel-lobby-vienna-2",
        "address": "Vienna",
        "city": "Vienna",
        "state": null,
        "country": "Austria",
        "postal_code": null,
        "latitude": 48.2064947,
        "longitude": 16.3546991,
        "geocoded_at": "2025-12-09T04:21:09.509+00:00",
        "created_at": "2025-12-03T03:05:07.640324+00:00"
      },
      {
        "id": "abd83fae-33bc-471e-a7e4-bd6836734827",
        "name": "25hours Hotel Lobby",
        "slug": "25hours-hotel-lobby-vienna-1",
        "address": "",
        "city": "Vienna",
        "state": null,
        "country": "Austria",
        "postal_code": null,
        "latitude": 48.2064947,
        "longitude": 16.3546991,
        "geocoded_at": "2025-12-09T04:18:06.771+00:00",
        "created_at": "2025-12-01T20:59:05.828+00:00"
      }
    ],
    "reason": "Most complete data (score: 46.9)"
  },
  {
    "keep": {
      "id": "8895a5b9-24b4-438e-bd6d-7abaa4975ecf",
      "name": "25hours Hotel Wien Dachboden",
      "slug": "25hours-hotel-wien-dachboden-vienna",
      "address": "25hours Hotel Wien Rooftop",
      "city": "Vienna",
      "state": null,
      "country": "Austria",
      "postal_code": null,
      "latitude": 48.2064947,
      "longitude": 16.3546991,
      "geocoded_at": null,
      "created_at": "2025-11-30T02:46:52.601+00:00"
    },
    "delete": [
      {
        "id": "d52c1098-699d-4a50-975e-2e05d22ebdb7",
        "name": "25hours Hotel Wien Dachboden",
        "slug": "25hours-hotel-wien-dachboden-vienna-2",
        "address": "Vienna",
        "city": "Vienna",
        "state": null,
        "country": "Austria",
        "postal_code": null,
        "latitude": 48.2080696,
        "longitude": 16.3713095,
        "geocoded_at": null,
        "created_at": "2025-12-03T03:05:07.904219+00:00"
      },
      {
        "id": "7184afd9-a06c-4ee0-8326-7572a62ab5da",
        "name": "25hours Hotel Wien Dachboden",
        "slug": "25hours-hotel-wien-dachboden-vienna-1",
        "address": "",
        "city": "Vienna",
        "state": null,
        "country": "Austria",
        "postal_code": null,
        "latitude": 48.2063769,
        "longitude": 16.3545928,
        "geocoded_at": null,
        "created_at": "2025-12-01T20:59:06.14+00:00"
      }
    ],
    "reason": "Most complete data (score: 57.6)"
  },
  {
    "keep": {
      "id": "9bea9ef2-068f-4f51-8266-938c35cba24d",
      "name": "Archie McPhee",
      "slug": "archie-mcphee-seattle",
      "address": "2428 NW Market Street",
      "city": "Seattle",
      "state": null,
      "country": "United States",
      "postal_code": null,
      "latitude": 47.6690485,
      "longitude": -122.3891808,
      "geocoded_at": null,
      "created_at": "2025-11-29T02:40:47.358+00:00"
    },
    "delete": [
      {
        "id": "f31d90ed-45e5-4c73-8dc1-97a6b0447184",
        "name": "Archie McPhee",
        "slug": "archie-mcphee-seattle-2",
        "address": "2428 NW Market Street",
        "city": "Seattle",
        "state": "WA",
        "country": "USA",
        "postal_code": null,
        "latitude": 47.668701,
        "longitude": -122.38797,
        "geocoded_at": null,
        "created_at": "2025-12-02T22:00:54.876+00:00"
      },
      {
        "id": "e22b9c8a-f14c-4fc0-811a-8bbd0e785879",
        "name": "Archie McPhee",
        "slug": "archie-mcphee-seattle-1",
        "address": "1300 N 45th St.",
        "city": "Seattle",
        "state": null,
        "country": "United States",
        "postal_code": null,
        "latitude": 47.661608,
        "longitude": -122.341707,
        "geocoded_at": null,
        "created_at": "2025-11-29T02:41:25.153+00:00"
      }
    ],
    "reason": "Most complete data (score: 57.1)"
  },
  {
    "keep": {
      "id": "152c0e37-ee95-4bc6-8d89-01b6236b854b",
      "name": "Bar Europa",
      "slug": "bar-europa-stockholm-1",
      "address": "Bysistorget 6, 118 21 Stockholm, Sweden",
      "city": "Stockholm",
      "state": null,
      "country": "Sweden",
      "postal_code": null,
      "latitude": 59.318388,
      "longitude": 18.0557436,
      "geocoded_at": null,
      "created_at": "2025-11-30T02:50:10.419+00:00"
    },
    "delete": [
      {
        "id": "062517aa-6c13-4b78-a89d-c660d8cce955",
        "name": "Bar Europa",
        "slug": "bar-europa-stockholm",
        "address": "",
        "city": "Stockholm",
        "state": null,
        "country": "Sweden",
        "postal_code": null,
        "latitude": 59.318388,
        "longitude": 18.0557436,
        "geocoded_at": "2025-12-09T04:18:15.324+00:00",
        "created_at": "2025-11-30T02:48:52.114+00:00"
      },
      {
        "id": "1b18152e-bf20-4c68-98b2-a40663985be3",
        "name": "Bar Europa",
        "slug": "bar-europa-stockholm-2",
        "address": "Stockholm",
        "city": "Stockholm",
        "state": null,
        "country": "Sweden",
        "postal_code": null,
        "latitude": 59.3327036,
        "longitude": 18.0656255,
        "geocoded_at": null,
        "created_at": "2025-12-03T03:05:15.711462+00:00"
      }
    ],
    "reason": "Most complete data (score: 48.9)"
  },
  {
    "keep": {
      "id": "63b20b61-703e-4515-a441-6cabc3c96b65",
      "name": "Barnone",
      "slug": "barnone-gilbert",
      "address": "3000 E Ray Rd, Gilbert, AZ 85296, USA",
      "city": "Gilbert",
      "state": null,
      "country": "Arizona, USA",
      "postal_code": null,
      "latitude": 33.3216173,
      "longitude": -111.726713,
      "geocoded_at": null,
      "created_at": "2025-11-29T02:36:00.139+00:00"
    },
    "delete": [
      {
        "id": "1cf07794-aaf1-4201-a876-a533f9c0154e",
        "name": "Barnone",
        "slug": "barnone-gilbert-2",
        "address": "3000 E Ray Rd, Gilbert, AZ 85296, USA",
        "city": "Gilbert",
        "state": null,
        "country": "USA",
        "postal_code": null,
        "latitude": 33.3216173,
        "longitude": -111.726713,
        "geocoded_at": null,
        "created_at": "2025-11-30T02:46:25.183+00:00"
      },
      {
        "id": "0a85afb1-2576-4a54-b05f-897ead2c0d57",
        "name": "Barnone",
        "slug": "barnone-gilbert-1",
        "address": "3000 E. Ray Rd.",
        "city": "Gilbert",
        "state": null,
        "country": "United States",
        "postal_code": null,
        "latitude": 33.3218745,
        "longitude": -111.7255073,
        "geocoded_at": null,
        "created_at": "2025-11-29T02:41:44.153+00:00"
      }
    ],
    "reason": "Most complete data (score: 58.7)"
  },
  {
    "keep": {
      "id": "6bd6b089-b7b9-44b3-9a60-a7eb26b2f895",
      "name": "Barnone II",
      "slug": "barnone-ii-gilbert",
      "address": "3000 E Ray Rd.",
      "city": "Gilbert",
      "state": null,
      "country": "United States",
      "postal_code": null,
      "latitude": 33.321767,
      "longitude": -111.726706,
      "geocoded_at": "2025-12-09T04:16:56.38+00:00",
      "created_at": "2025-11-29T02:41:49.822+00:00"
    },
    "delete": [
      {
        "id": "c58cca0d-3bb3-4e8a-994f-bbf4c38ce8ee",
        "name": "Barnone II",
        "slug": "barnone-ii-gilbert-1",
        "address": "3000 E Ray Rd.",
        "city": "Gilbert",
        "state": null,
        "country": "United States",
        "postal_code": null,
        "latitude": 33.3218745,
        "longitude": -111.7255073,
        "geocoded_at": null,
        "created_at": "2025-11-29T02:41:57.15+00:00"
      },
      {
        "id": "a4ee331b-445b-4663-8bca-55385751309f",
        "name": "Barnone II",
        "slug": "barnone-ii-gilbert-2",
        "address": "Gilbert",
        "city": "Gilbert",
        "state": "Arizona",
        "country": "USA",
        "postal_code": null,
        "latitude": 33.3216173,
        "longitude": -111.726713,
        "geocoded_at": "2025-12-09T04:20:49.052+00:00",
        "created_at": "2025-12-02T22:01:45.477+00:00"
      }
    ],
    "reason": "Most complete data (score: 61.4)"
  },
  {
    "keep": {
      "id": "5a068282-2384-4896-9e90-7ff35ab79f28",
      "name": "Beauty Bar",
      "slug": "beauty-bar-chicago-1",
      "address": "1444 W Chicago Ave, Chicago, IL 60642, USA",
      "city": "Chicago",
      "state": null,
      "country": "USA",
      "postal_code": null,
      "latitude": 41.8962917,
      "longitude": -87.6641527,
      "geocoded_at": null,
      "created_at": "2025-11-29T03:45:05.074+00:00"
    },
    "delete": [
      {
        "id": "5c56c17d-0274-4e49-8537-8c459a6d67fa",
        "name": "Beauty Bar",
        "slug": "beauty-bar-chicago",
        "address": "",
        "city": "Chicago",
        "state": null,
        "country": "USA",
        "postal_code": null,
        "latitude": 41.7371936,
        "longitude": -87.583429,
        "geocoded_at": null,
        "created_at": "2025-11-29T02:56:52.252+00:00"
      },
      {
        "id": "adf92a32-ddc8-4973-b923-aa43a4a41989",
        "name": "Beauty Bar",
        "slug": "beauty-bar-chicago-2",
        "address": "",
        "city": "Chicago",
        "state": null,
        "country": "USA",
        "postal_code": null,
        "latitude": 41.7371936,
        "longitude": -87.583429,
        "geocoded_at": null,
        "created_at": "2025-11-30T02:47:50.125+00:00"
      }
    ],
    "reason": "Most complete data (score: 49.2)"
  },
  {
    "keep": {
      "id": "e13f8a1d-58ea-443b-97e7-78c153ec2d96",
      "name": "Birdy's",
      "slug": "birdy-s-brooklyn",
      "address": "1215 Myrtle Ave.",
      "city": "Brooklyn",
      "state": null,
      "country": "United States",
      "postal_code": null,
      "latitude": 40.697596,
      "longitude": -73.9315393,
      "geocoded_at": null,
      "created_at": "2025-11-29T02:41:45.105+00:00"
    },
    "delete": [
      {
        "id": "4f66c7b0-fd5b-418d-9b5b-6b17c1d27b64",
        "name": "Birdy's",
        "slug": "birdy-s-brooklyn-2",
        "address": "627 Grand St",
        "city": "Brooklyn",
        "state": "NY",
        "country": "USA",
        "postal_code": null,
        "latitude": 40.7115182,
        "longitude": -73.9470538,
        "geocoded_at": null,
        "created_at": "2025-12-03T03:30:50.147274+00:00"
      },
      {
        "id": "9c45067a-2846-480f-b9df-e9e3c3b55c69",
        "name": "Birdy's",
        "slug": "birdy-s-brooklyn-1",
        "address": "Brooklyn",
        "city": "Brooklyn",
        "state": "New York",
        "country": "USA",
        "postal_code": null,
        "latitude": 40.6781784,
        "longitude": -73.9441579,
        "geocoded_at": "2025-12-09T04:19:24.647+00:00",
        "created_at": "2025-12-02T22:01:03.577+00:00"
      }
    ],
    "reason": "Most complete data (score: 56.6)"
  },
  {
    "keep": {
      "id": "2664c2d1-3089-4769-9e30-5a9d232aff82",
      "name": "Café Klotet",
      "slug": "caf-klotet-stockholm",
      "address": "",
      "city": "Stockholm",
      "state": null,
      "country": "Sweden",
      "postal_code": null,
      "latitude": 59.3194585,
      "longitude": 18.0734116,
      "geocoded_at": "2025-12-09T04:18:44.083+00:00",
      "created_at": "2025-11-30T02:48:52.219+00:00"
    },
    "delete": [
      {
        "id": "bd8fb618-3361-4686-aae6-fb54e655134d",
        "name": "Café Klotet",
        "slug": "caf-klotet-stockholm-2",
        "address": "Stockholm",
        "city": "Stockholm",
        "state": null,
        "country": "Sweden",
        "postal_code": null,
        "latitude": 59.3327036,
        "longitude": 18.0656255,
        "geocoded_at": null,
        "created_at": "2025-12-03T03:05:15.908212+00:00"
      },
      {
        "id": "a6bb066b-1cf3-4659-a972-d46c1fc739f8",
        "name": "Café Klotet",
        "slug": "caf-klotet-stockholm-1",
        "address": "",
        "city": "Stockholm",
        "state": null,
        "country": "Sweden",
        "postal_code": null,
        "latitude": 59.3194585,
        "longitude": 18.0734116,
        "geocoded_at": null,
        "created_at": "2025-11-30T02:50:10.523+00:00"
      }
    ],
    "reason": "Most complete data (score: 40)"
  },
  {
    "keep": {
      "id": "f9ceea23-d06f-43b8-b3de-8319a41f1b95",
      "name": "Café Konstantin",
      "slug": "caf-konstantin-vienna",
      "address": "Grüner Prater",
      "city": "Vienna",
      "state": null,
      "country": "Austria",
      "postal_code": null,
      "latitude": 48.210179,
      "longitude": 16.4128289,
      "geocoded_at": null,
      "created_at": "2025-11-30T02:46:53.585+00:00"
    },